[{"Fecha":{"human":"December 1, 2012, 12:00:00 am -06:00 CST","unix":1354341600},"place":{"name":"Sonora","lat":29.66667,"lon":-110.5},"responsable":"Funcionario público","sexo":"Hombre","type":"Detención ilegal"},{"Fecha":{"human":"December 1, 2012, 12:00:00 am -06:00 CST","unix":1354341600},"place":{"name":"Veracruz","lat":19.33333,"lon":-96.66667},"responsable":"Funcionario público","sexo":"Hombre","type":"Física/Material"},{"Fecha":{"human":"December 1, 2012, 12:00:00 am -06:00 CST","unix":1354341600},"place":{"name":"Veracruz","lat":19.33333,"lon":-96.66667},"responsable":"Funcionario público","sexo":"Hombre","type":"Física/Material"},{"Fecha":{"human":"December 1, 2012, 12:00:00 am -06:00 CST","unix":1354341600},"place":{"name":"Oaxaca","lat":17,"lon":-96.5},"responsable":"Funcionario público","sexo":"Mujer","type":"Física/Material"},{"Fecha":{"human":"December 1, 2012, 12:00:00 am -06:00 CST","unix":1354341600},"place":{"name":"Baja California","lat":30,"lon":-115},"responsable":"Funcionario público","sexo":"Hombre","type":"Física/Material"},{"Fecha":{"human":"December 1, 2012, 12:00:00 am -06:00 CST","unix":1354341600},"place":{"name":"Baja California","lat":30,"lon":-115},"responsable":"Funcionario público","sexo":"Hombre","type":"Física/Material"},{"Fecha":{"human":"December 1, 2012, 12:00:00 am -06:00 CST","unix":1354341600},"place":{"name":"Baja California","lat":30,"lon":-115},"responsable":"Funcionario público","sexo":"Hombre","type":"Física/Material"},{"Fecha":{"human":"December 1, 2012, 12:00:00 am -06:00 CST","unix":1354341600},"place":{"name":"Baja California","lat":30,"lon":-115},"responsable":"Particulares","sexo":"Hombre","type":"Física/Material"},{"Fecha":{"human":"December 1, 2012, 12:00:00 am -06:00 CST","unix":1354341600},"place":{"name":"Distrito Federal","lat":-15.77972,"lon":-47.92972},"responsable":"Particulares","sexo":"No aplica","type":"Física/Material"},{"Fecha":{"human":"December 1, 2012, 12:00:00 am -06:00 CST","unix":1354341600},"place":{"name":"Tamaulipas","lat":24,"lon":-98.75},"responsable":"Funcionario público","sexo":"Hombre","type":"Física/Material"},{"Fecha":{"human":"December 4, 2012, 12:00:00 am -06:00 CST","unix":1354600800},"place":{"name":"Chihuahua","lat":28.63528,"lon":-106.08889},"responsable":"Funcionario público","sexo":"Hombre","type":"Física/Material"},{"Fecha":{"human":"December 5, 2012, 12:00:00 am -06:00 CST","unix":1354687200},"place":{"name":"Chihuahua","lat":28.63528,"lon":-106.08889},"responsable":"Funcionario público","sexo":"Hombre","type":"Intimidación"},{"Fecha":{"human":"December 6, 2012, 12:00:00 am -06:00 CST","unix":1354773600},"place":{"name":"Sinaloa","lat":25,"lon":-107.5},"responsable":"Delincuencia organizada","sexo":"Hombre","type":"Amenaza"},{"Fecha":{"human":"December 12, 2012, 12:00:00 am -06:00 CST","unix":1355292000},"place":{"name":"Veracruz","lat":19.33333,"lon":-96.66667},"responsable":"Se desconoce","sexo":"Mujer","type":"Amenaza"},{"Fecha":{"human":"December 12, 2012, 12:00:00 am -06:00 CST","unix":1355292000},"place":{"name":"Chihuahua","lat":28.63528,"lon":-106.08889},"responsable":"Funcionario público","sexo":"Mujer","type":"Física/Material"},{"Fecha":{"human":"December 17, 2012, 12:00:00 am -06:00 CST","unix":1355724000},"place":{"name":"Chihuahua","lat":28.63528,"lon":-106.08889},"responsable":"Delincuencia organizada","sexo":"Mujer","type":"Privación de la libertad"},{"Fecha":{"human":"December 18, 2012, 12:00:00 am -06:00 CST","unix":1355810400},"place":{"name":"Morelos","lat":19.60492,"lon":-99.06064},"responsable":"Se desconoce","sexo":"No aplica","type":"Ataque cibernético"},{"Fecha":{"human":"December 20, 2012, 12:00:00 am -06:00 CST","unix":1355983200},"place":{"name":"Sonora","lat":29.66667,"lon":-110.5},"responsable":"Funcionario público","sexo":"Hombre","type":"Intimidación"},{"Fecha":{"human":"December 25, 2012, 12:00:00 am -06:00 CST","unix":1356415200},"place":{"name":"Baja California","lat":30,"lon":-115},"responsable":"Se desconoce","sexo":"Mujer","type":"Amenaza"},{"Fecha":{"human":"December 28, 2012, 12:00:00 am -06:00 CST","unix":1356674400},"place":{"name":"Chihuahua","lat":28.63528,"lon":-106.08889},"responsable":"Particulares","sexo":"Hombre","type":"Física/Material"},{"Fecha":{"human":"January 3, 2013, 12:00:00 am -06:00 CST","unix":1357192800},"place":{"name":"Veracruz,Veracruz","lat":19.33333,"lon":-96.66667},"responsable":"Funcionario público","sexo":"No aplica","type":"Intimidación"},{"Fecha":{"human":"January 4, 2013, 12:00:00 am -06:00 CST","unix":1357279200},"place":{"name":"Playas de Rosarito,Baja California","lat":32.36044,"lon":-117.04645},"responsable":"Funcionario público","sexo":"Femenino","type":"Detención ilegal"},{"Fecha":{"human":"January 10, 2013, 12:00:00 am -06:00 CST","unix":1357797600},"place":{"name":"Emiliano Zapata,Morelos","lat":18.81062,"lon":-99.18711},"responsable":"Funcionario público","sexo":"Masculino","type":"Física/Material"},{"Fecha":{"human":"January 11, 2013, 12:00:00 am -06:00 CST","unix":1357884000},"place":{"name":"Distrito Federal,Distrito Federal","lat":-15.77972,"lon":-47.92972},"responsable":"Funcionario público","sexo":"Masculino","type":"Acción legal/calumnia/difamación"},{"Fecha":{"human":"January 11, 2013, 12:00:00 am -06:00 CST","unix":1357884000},"place":{"name":"Ixhuatán,Chiapas","lat":17.29816,"lon":-93.00808},"responsable":"Funcionario público","sexo":"Masculino","type":"Intimidación"},{"Fecha":{"human":"January 14, 2013, 12:00:00 am -06:00 CST","unix":1358143200},"place":{"name":"Toluca,Estado de México","lat":19.28786,"lon":-99.65324},"responsable":"Funcionario público","sexo":"Masculino","type":"Física/Material"},{"Fecha":{"human":"January 19, 2013, 12:00:00 am -06:00 CST","unix":1358575200},"place":{"name":"Tlacotalpan,Veracruz","lat":18.54677,"lon":-95.63159},"responsable":"Particular","sexo":"Masculino","type":"Física/Material"},{"Fecha":{"human":"January 23, 2013, 12:00:00 am -06:00 CST","unix":1358920800},"place":{"name":"Cardel,Veracruz","lat":19.3681,"lon":-96.36951},"responsable":"Crimen organizado","sexo":"Masculino","type":"Desaparición"},{"Fecha":{"human":"January 25, 2013, 12:00:00 am -06:00 CST","unix":1359093600},"place":{"name":"Toluca,Estado de México","lat":19.28786,"lon":-99.65324},"responsable":"Funcionario público","sexo":"Masculino","type":"Física/Material"},{"Fecha":{"human":"January 28, 2013, 12:00:00 am -06:00 CST","unix":1359352800},"place":{"name":"San Luis Teolocholco,Tlaxcala","lat":19.24333,"lon":-98.19083},"responsable":"Particular","sexo":"Femenino","type":"Amenaza"},{"Fecha":{"human":"January 28, 2013, 12:00:00 am -06:00 CST","unix":1359352800},"place":{"name":"San Luis Teolocholco,Tlaxcala","lat":19.24333,"lon":-98.19083},"responsable":"Particular","sexo":"Masculino","type":"Amenaza"},{"Fecha":{"human":"January 28, 2013, 12:00:00 am -06:00 CST","unix":1359352800},"place":{"name":"San Luis Teolocholco,Tlaxcala","lat":19.24333,"lon":-98.19083},"responsable":"Particular","sexo":"Masculino","type":"Amenaza"},{"Fecha":{"human":"January 28, 2013, 12:00:00 am -06:00 CST","unix":1359352800},"place":{"name":"San Luis Teolocholco,Tlaxcala","lat":19.24333,"lon":-98.19083},"responsable":"Particular","sexo":"Masculino","type":"Amenaza"},{"Fecha":{"human":"January 28, 2013, 12:00:00 am -06:00 CST","unix":1359352800},"place":{"name":"San Luis Teolocholco,Tlaxcala","lat":19.24333,"lon":-98.19083},"responsable":"Particular","sexo":"Masculino","type":"Amenaza"},{"Fecha":{"human":"January 28, 2013, 12:00:00 am -06:00 CST","unix":1359352800},"place":{"name":"San Luis Teolocholco,Tlaxcala","lat":19.24333,"lon":-98.19083},"responsable":"Particular","sexo":"Masculino","type":"Amenaza"},{"Fecha":{"human":"January 28, 2013, 12:00:00 am -06:00 CST","unix":1359352800},"place":{"name":"San Luis Teolocholco,Tlaxcala","lat":19.24333,"lon":-98.19083},"responsable":"Particular","sexo":"Femenino","type":"Amenaza"},{"Fecha":{"human":"January 28, 2013, 12:00:00 am -06:00 CST","unix":1359352800},"place":{"name":"San Luis Teolocholco,Tlaxcala","lat":19.24333,"lon":-98.19083},"responsable":"Particular","sexo":"Masculino","type":"Amenaza"},{"Fecha":{"human":"January 30, 2013, 12:00:00 am -06:00 CST","unix":1359525600},"place":{"name":"Chilapa,Guerrero","lat":17.59459,"lon":-99.17639},"responsable":"Particular","sexo":"Masculino","type":"Amenaza"},{"Fecha":{"human":"January 31, 2013, 12:00:00 am -06:00 CST","unix":1359612000},"place":{"name":"Huixtla,Chiapas","lat":15.14286,"lon":-92.5122},"responsable":"Funcionario público","sexo":"Masculino","type":"Física/Material"},{"Fecha":{"human":"February 7, 2013, 12:00:00 am -06:00 CST","unix":1360216800},"place":{"name":"Chilapa,Guerrero","lat":17.59459,"lon":-99.17639},"responsable":"Funcionario público","sexo":"Masculino","type":"Amenaza"},{"Fecha":{"human":"February 7, 2013, 12:00:00 am -06:00 CST","unix":1360216800},"place":{"name":"Chilapa,Guerrero","lat":17.59459,"lon":-99.17639},"responsable":"Funcionario público","sexo":"Masculino","type":"Amenaza"},{"Fecha":{"human":"February 7, 2013, 12:00:00 am -06:00 CST","unix":1360216800},"place":{"name":"Torreón,Coahuila","lat":25.54389,"lon":-103.41898},"responsable":"Particular","sexo":"Masculino","type":"Privación de la libertad"},{"Fecha":{"human":"February 7, 2013, 12:00:00 am -06:00 CST","unix":1360216800},"place":{"name":"Torreón,Coahuila","lat":25.54389,"lon":-103.41898},"responsable":"Particular","sexo":"Masculino","type":"Privación de la libertad"},{"Fecha":{"human":"February 7, 2013, 12:00:00 am -06:00 CST","unix":1360216800},"place":{"name":"Torreón,Coahuila","lat":25.54389,"lon":-103.41898},"responsable":"Particular","sexo":"Masculino","type":"Privación de la libertad"},{"Fecha":{"human":"February 7, 2013, 12:00:00 am -06:00 CST","unix":1360216800},"place":{"name":"Torreón,Coahuila","lat":25.54389,"lon":-103.41898},"responsable":"Particular","sexo":"Masculino","type":"Privación de la libertad"},{"Fecha":{"human":"February 7, 2013, 12:00:00 am -06:00 CST","unix":1360216800},"place":{"name":"Torreón,Coahuila","lat":25.54389,"lon":-103.41898},"responsable":"Particular","sexo":"Femenino","type":"Privación de la libertad"},{"Fecha":{"human":"February 11, 2013, 12:00:00 am -06:00 CST","unix":1360562400},"place":{"name":"Distrito Federal,Distrito Federal","lat":-15.77972,"lon":-47.92972},"responsable":"Se desconoce","sexo":"Masculino","type":"Amenaza"},{"Fecha":{"human":"February 12, 2013, 12:00:00 am -06:00 CST","unix":1360648800},"place":{"name":"Tamaulipas","lat":24,"lon":-98.75},"responsable":"Se desconoce","sexo":"No aplica","type":"Amenaza"},{"Fecha":{"human":"February 14, 2013, 12:00:00 am -06:00 CST","unix":1360821600},"place":{"name":"Comitán,Chiapas","lat":16.2471,"lon":-92.13515},"responsable":"Particular","sexo":"Masculino","type":"Física/Material"},{"Fecha":{"human":"February 21, 2013, 12:00:00 am -06:00 CST","unix":1361426400},"place":{"name":"Tuxtepec,Oaxaca","lat":18.0883,"lon":-96.12535},"responsable":"Crimen organizado","sexo":"Masculino","type":"Amenaza"},{"Fecha":{"human":"February 21, 2013, 12:00:00 am -06:00 CST","unix":1361426400},"place":{"name":"Tuxtepec,Oaxaca","lat":18.0883,"lon":-96.12535},"responsable":"Organización social","sexo":"Masculino","type":"Intimidación"},{"Fecha":{"human":"February 24, 2013, 12:00:00 am -06:00 CST","unix":1361685600},"place":{"name":"Hermosillo,Sonora","lat":29.1026,"lon":-110.97732},"responsable":"Organización social","sexo":"Masculino","type":"Física/Material"},{"Fecha":{"human":"February 24, 2013, 12:00:00 am -06:00 CST","unix":1361685600},"place":{"name":"Hermosillo,Sonora","lat":29.1026,"lon":-110.97732},"responsable":"Organización social","sexo":"Masculino","type":"Física/Material"},{"Fecha":{"human":"February 24, 2013, 12:00:00 am -06:00 CST","unix":1361685600},"place":{"name":"Hermosillo,Sonora","lat":29.1026,"lon":-110.97732},"responsable":"Organización social","sexo":"Masculino","type":"Física/Material"},{"Fecha":{"human":"February 24, 2013, 12:00:00 am -06:00 CST","unix":1361685600},"place":{"name":"Hermosillo,Sonora","lat":29.1026,"lon":-110.97732},"responsable":"Organización social","sexo":"Masculino","type":"Física/Material"},{"Fecha":{"human":"February 24, 2013, 12:00:00 am -06:00 CST","unix":1361685600},"place":{"name":"Hermosillo,Sonora","lat":29.1026,"lon":-110.97732},"responsable":"Organización social","sexo":"Masculino","type":"Física/Material"},{"Fecha":{"human":"February 25, 2013, 12:00:00 am -06:00 CST","unix":1361772000},"place":{"name":"Torreón,Coahuila","lat":25.54389,"lon":-103.41898},"responsable":"Crimen organizado","sexo":"No aplica","type":"Física/Material"},{"Fecha":{"human":"February 26, 2013, 12:00:00 am -06:00 CST","unix":1361858400},"place":{"name":"Torreón,Coahuila","lat":25.54389,"lon":-103.41898},"responsable":"Crimen organizado","sexo":"No aplica","type":"Física/Material"},{"Fecha":{"human":"February 27, 2013, 12:00:00 am -06:00 CST","unix":1361944800},"place":{"name":"Torreón,Coahuila","lat":25.54389,"lon":-103.41898},"responsable":"Crimen organizado","sexo":"No aplica","type":"Física/Material"},{"Fecha":{"human":"February 27, 2013, 12:00:00 am -06:00 CST","unix":1361944800},"place":{"name":"Chilapa,Guerrero","lat":17.59459,"lon":-99.17639},"responsable":"Funcionario público","sexo":"Masculino","type":"Intimidación"},{"Fecha":{"human":"March 3, 2013, 12:00:00 am -06:00 CST","unix":1362290400},"place":{"name":"Torreón,Coahuila","lat":25.54389,"lon":-103.41898},"responsable":"Crimen organizado","sexo":"No aplica","type":"Amenaza"},{"Fecha":{"human":"March 3, 2013, 12:00:00 am -06:00 CST","unix":1362290400},"place":{"name":"Ojinaga,Chihuahua","lat":29.31371,"lon":-104.4484},"responsable":"Crimen organizado","sexo":"Masculino","type":"Asesinato"},{"Fecha":{"human":"March 4, 2013, 12:00:00 am -06:00 CST","unix":1362376800},"place":{"name":"Toluca,Estado de México","lat":19.28786,"lon":-99.65324},"responsable":"Funcionario público","sexo":"Masculino","type":"Física/Material"},{"Fecha":{"human":"March 6, 2013, 12:00:00 am -06:00 CST","unix":1362549600},"place":{"name":"Ciudad Juárez,Chihuahua","lat":31.72024,"lon":-106.46084},"responsable":"Crimen organizado","sexo":"No aplica","type":"Física/Material"},{"Fecha":{"human":"March 6, 2013, 12:00:00 am -06:00 CST","unix":1362549600},"place":{"name":"Ciudad Juárez,Chihuahua","lat":31.72024,"lon":-106.46084},"responsable":"Crimen organizado","sexo":"No aplica","type":"Física/Material"},{"Fecha":{"human":"March 7, 2013, 12:00:00 am -06:00 CST","unix":1362636000},"place":{"name":"Saltillo,Coahuila","lat":25.42321,"lon":-101.0053},"responsable":"Crimen organizado","sexo":"No aplica","type":"Amenaza"},{"Fecha":{"human":"March 15, 2013, 12:00:00 am -06:00 CST","unix":1363327200},"place":{"name":"Veracruz,Veracruz","lat":19.33333,"lon":-96.66667},"responsable":"Funcionario público","sexo":"Masculino","type":"Amenaza"},{"Fecha":{"human":"March 15, 2013, 12:00:00 am -06:00 CST","unix":1363327200},"place":{"name":"Jiménez,Chihuahua","lat":27.12734,"lon":-104.72872},"responsable":"Crimen organizado","sexo":"Masculino","type":"Desaparición"},{"Fecha":{"human":"March 20, 2013, 12:00:00 am -06:00 CST","unix":1363759200},"place":{"name":"Santa María Xadani,Oaxaca","lat":16.3789,"lon":-95.0284},"responsable":"Se desconoce","sexo":"Masculino","type":"Acción legal/calumnia/difamación"},{"Fecha":{"human":"March 20, 2013, 12:00:00 am -06:00 CST","unix":1363759200},"place":{"name":"Santa María Xadani,Oaxaca","lat":16.3789,"lon":-95.0284},"responsable":"Funcionario público","sexo":"Masculino","type":"Amenaza"},{"Fecha":{"human":"March 21, 2013, 12:00:00 am -06:00 CST","unix":1363845600},"place":{"name":"San Mateo del Mar,Oaxaca","lat":16.208,"lon":-95.03878},"responsable":"Funcionario público","sexo":"Masculino","type":"Acción legal/calumnia/difamación"},{"Fecha":{"human":"March 21, 2013, 12:00:00 am -06:00 CST","unix":1363845600},"place":{"name":"San Mateo del Mar,Oaxaca","lat":16.208,"lon":-95.03878},"responsable":"Funcionario público","sexo":"Femenino","type":"Acción legal/calumnia/difamación"},{"Fecha":{"human":"March 21, 2013, 12:00:00 am -06:00 CST","unix":1363845600},"place":{"name":"San Mateo del Mar,Oaxaca","lat":16.208,"lon":-95.03878},"responsable":"Funcionario público","sexo":"Masculino","type":"Acción legal/calumnia/difamación"},{"Fecha":{"human":"March 28, 2013, 12:00:00 am -06:00 CST","unix":1364450400},"place":{"name":"Xalapa,Veracruz","lat":19.53124,"lon":-96.91589},"responsable":"Funcionario público","sexo":"Masculino","type":"Física/Material"},{"Fecha":{"human":"April 1, 2013, 12:00:00 am -06:00 CST","unix":1364796000},"place":{"name":"Chiconcuac,Estado de México","lat":19.55939,"lon":-98.89884},"responsable":"Funcionario público","sexo":"Masculino","type":"Amenaza"},{"Fecha":{"human":"April 1, 2013, 12:00:00 am -06:00 CST","unix":1364796000},"place":{"name":"Chiconcuac,Estado de México","lat":19.55939,"lon":-98.89884},"responsable":"Funcionario público","sexo":"Masculino","type":"Amenaza"},{"Fecha":{"human":"April 2, 2013, 12:00:00 am -06:00 CST","unix":1364882400},"place":{"name":"Juchitán,Oaxaca","lat":16.43603,"lon":-95.01975},"responsable":"Particular","sexo":"Masculino","type":"Acción legal/calumnia/difamación"},{"Fecha":{"human":"April 3, 2013, 12:00:00 am -06:00 CST","unix":1364968800},"place":{"name":"Aguascalientes,Aguascalientes","lat":21.88234,"lon":-102.28259},"responsable":"Se desconoce","sexo":"Masculino","type":"Ataque cibernético"},{"Fecha":{"human":"April 3, 2013, 12:00:00 am -06:00 CST","unix":1364968800},"place":{"name":"Aguascalientes,Aguascalientes","lat":21.88234,"lon":-102.28259},"responsable":"Funcionario público","sexo":"Masculino","type":"Intimidación"},{"Fecha":{"human":"April 4, 2013, 12:00:00 am -06:00 CST","unix":1365055200},"place":{"name":"Huatusco,Veracruz","lat":19.14876,"lon":-96.9676},"responsable":"Organización social","sexo":"Masculino","type":"Amenaza"},{"Fecha":{"human":"April 4, 2013, 12:00:00 am -06:00 CST","unix":1365055200},"place":{"name":"Huatusco,Veracruz","lat":19.14876,"lon":-96.9676},"responsable":"Particular","sexo":"Femenino","type":"Física/Material"},{"Fecha":{"human":"April 5, 2013, 12:00:00 am -06:00 CST","unix":1365141600},"place":{"name":"Mexicali,Baja California","lat":32.62781,"lon":-115.45446},"responsable":"Funcionario público","sexo":"Masculino","type":"Intimidación"},{"Fecha":{"human":"April 6, 2013, 12:00:00 am -06:00 CST","unix":1365228000},"place":{"name":"Martínez de la Torre,Veracruz","lat":20.07082,"lon":-97.06078},"responsable":"Funcionario público","sexo":"Masculino","type":"Amenaza"},{"Fecha":{"human":"April 6, 2013, 12:00:00 am -06:00 CST","unix":1365228000},"place":{"name":"Martínez de la Torre,Veracruz","lat":20.07082,"lon":-97.06078},"responsable":"Funcionario público","sexo":"Masculino","type":"Amenaza"},{"Fecha":{"human":"April 7, 2013, 12:00:00 am -06:00 CST","unix":1365314400},"place":{"name":"Tlaxcala,Tlaxcala","lat":19.31905,"lon":-98.19982},"responsable":"Funcionario público","sexo":"Masculino","type":"Acción legal/calumnia/difamación"},{"Fecha":{"human":"April 7, 2013, 12:00:00 am -06:00 CST","unix":1365314400},"place":{"name":"Tlaxcala,Tlaxcala","lat":19.31905,"lon":-98.19982},"responsable":"Funcionario público","sexo":"Masculino","type":"Acción legal/calumnia/difamación"},{"Fecha":{"human":"April 7, 2013, 12:00:00 am -06:00 CST","unix":1365314400},"place":{"name":"Tlaxcala,Tlaxcala","lat":19.31905,"lon":-98.19982},"responsable":"Funcionario público","sexo":"Masculino","type":"Acción legal/calumnia/difamación"},{"Fecha":{"human":"April 7, 2013, 12:00:00 am -06:00 CST","unix":1365314400},"place":{"name":"Tlaxcala,Tlaxcala","lat":19.31905,"lon":-98.19982},"responsable":"Funcionario público","sexo":"Masculino","type":"Acción legal/calumnia/difamación"},{"Fecha":{"human":"April 7, 2013, 12:00:00 am -06:00 CST","unix":1365314400},"place":{"name":"Tlaxcala,Tlaxcala","lat":19.31905,"lon":-98.19982},"responsable":"Funcionario público","sexo":"Masculino","type":"Acción legal/calumnia/difamación"},{"Fecha":{"human":"April 7, 2013, 12:00:00 am -06:00 CST","unix":1365314400},"place":{"name":"Xalapa,Veracruz","lat":19.53124,"lon":-96.91589},"responsable":"Funcionario público","sexo":"Masculino","type":"Detención ilegal"},{"Fecha":{"human":"April 8, 2013, 12:00:00 am -05:00 CDT","unix":1365397200},"place":{"name":"Xalapa,Veracruz","lat":19.53124,"lon":-96.91589},"responsable":"Funcionario público","sexo":"Femenino","type":"Intimidación"},{"Fecha":{"human":"April 8, 2013, 12:00:00 am -05:00 CDT","unix":1365397200},"place":{"name":"Delicias,Chihuahua","lat":28.19013,"lon":-105.47012},"responsable":"Funcionario público","sexo":"Masculino","type":"Intimidación"},{"Fecha":{"human":"April 13, 2013, 12:00:00 am -05:00 CDT","unix":1365829200},"place":{"name":"Comitán,Chiapas","lat":16.2471,"lon":-92.13515},"responsable":"Organización social","sexo":"Masculino","type":"Física/Material"},{"Fecha":{"human":"April 13, 2013, 12:00:00 am -05:00 CDT","unix":1365829200},"place":{"name":"Comitán,Chiapas","lat":16.2471,"lon":-92.13515},"responsable":"Organización social","sexo":"Femenino","type":"Física/Material"},{"Fecha":{"human":"April 16, 2013, 12:00:00 am -05:00 CDT","unix":1366088400},"place":{"name":"Aguascalientes,Aguascalientes","lat":21.88234,"lon":-102.28259},"responsable":"Particular","sexo":"Masculino","type":"Amenaza"},{"Fecha":{"human":"April 17, 2013, 12:00:00 am -05:00 CDT","unix":1366174800},"place":{"name":"Zapopan,Jalisco","lat":20.72356,"lon":-103.38479},"responsable":"Se desconoce","sexo":"No aplica","type":"Física/Material"},{"Fecha":{"human":"April 21, 2013, 12:00:00 am -05:00 CDT","unix":1366520400},"place":{"name":"Acapulco,Guerrero","lat":16.84942,"lon":-99.90891},"responsable":"Funcionario público","sexo":"Masculino","type":"Detención ilegal"},{"Fecha":{"human":"April 21, 2013, 12:00:00 am -05:00 CDT","unix":1366520400},"place":{"name":"Acapulco,Guerrero","lat":16.84942,"lon":-99.90891},"responsable":"Funcionario público","sexo":"Masculino","type":"Física/Material"},{"Fecha":{"human":"April 23, 2013, 12:00:00 am -05:00 CDT","unix":1366693200},"place":{"name":"Distrito Federal,Distrito Federal","lat":-15.77972,"lon":-47.92972},"responsable":"Particular","sexo":"Masculino","type":"Física/Material"},{"Fecha":{"human":"April 24, 2013, 12:00:00 am -05:00 CDT","unix":1366779600},"place":{"name":"Saltillo,Coahuila","lat":25.42321,"lon":-101.0053},"responsable":"Crimen organizado","sexo":"Masculino","type":"Asesinato"},{"Fecha":{"human":"April 26, 2013, 12:00:00 am -05:00 CDT","unix":1366952400},"place":{"name":"Istmo de Tehuantepec,Oaxaca","lat":17.000246,"lon":-94.999914},"responsable":"Crimen organizado","sexo":"Femenino","type":"Privación de la libertad"},{"Fecha":{"human":"April 29, 2013, 12:00:00 am -05:00 CDT","unix":1367211600},"place":{"name":"Saltillo,Coahuila","lat":25.42321,"lon":-101.0053},"responsable":"Particular","sexo":"Masculino","type":"Física/Material"},{"Fecha":{"human":"April 30, 2013, 12:00:00 am -05:00 CDT","unix":1367298000},"place":{"name":"Oaxaca,Oaxaca","lat":17,"lon":-96.5},"responsable":"Crimen organizado","sexo":"Masculino","type":"Amenaza"},{"Fecha":{"human":"April 30, 2013, 12:00:00 am -05:00 CDT","unix":1367298000},"place":{"name":"Oaxaca,Oaxaca","lat":17,"lon":-96.5},"responsable":"Crimen organizado","sexo":"Masculino","type":"Amenaza"},{"Fecha":{"human":"May 1, 2013, 12:00:00 am -05:00 CDT","unix":1367384400},"place":{"name":"Tlaxcala,Tlaxcala","lat":19.31905,"lon":-98.19982},"responsable":"Crimen organizado","sexo":"Masculino","type":"Física/Material"},{"Fecha":{"human":"May 1, 2013, 12:00:00 am -05:00 CDT","unix":1367384400},"place":{"name":"Tlaxcala,Tlaxcala","lat":19.31905,"lon":-98.19982},"responsable":"Organización social","sexo":"Masculino","type":"Física/Material"},{"Fecha":{"human":"May 1, 2013, 12:00:00 am -05:00 CDT","unix":1367384400},"place":{"name":"Tlaxcala,Tlaxcala","lat":19.31905,"lon":-98.19982},"responsable":"Organización social","sexo":"Masculino","type":"Física/Material"},{"Fecha":{"human":"May 1, 2013, 12:00:00 am -05:00 CDT","unix":1367384400},"place":{"name":"Tlaxcala,Tlaxcala","lat":19.31905,"lon":-98.19982},"responsable":"Organización social","sexo":"Masculino","type":"Física/Material"},{"Fecha":{"human":"May 1, 2013, 12:00:00 am -05:00 CDT","unix":1367384400},"place":{"name":"Tlaxcala,Tlaxcala","lat":19.31905,"lon":-98.19982},"responsable":"Organización social","sexo":"Femenino","type":"Física/Material"},{"Fecha":{"human":"May 1, 2013, 12:00:00 am -05:00 CDT","unix":1367384400},"place":{"name":"Tlaxcala,Tlaxcala","lat":19.31905,"lon":-98.19982},"responsable":"Organización social","sexo":"Masculino","type":"Física/Material"},{"Fecha":{"human":"May 1, 2013, 12:00:00 am -05:00 CDT","unix":1367384400},"place":{"name":"Tlaxcala,Tlaxcala","lat":19.31905,"lon":-98.19982},"responsable":"Organización social","sexo":"Femenino","type":"Física/Material"},{"Fecha":{"human":"May 1, 2013, 12:00:00 am -05:00 CDT","unix":1367384400},"place":{"name":"Tlaxcala,Tlaxcala","lat":19.31905,"lon":-98.19982},"responsable":"Organización social","sexo":"Femenino","type":"Física/Material"},{"Fecha":{"human":"May 1, 2013, 12:00:00 am -05:00 CDT","unix":1367384400},"place":{"name":"Tlaxcala,Tlaxcala","lat":19.31905,"lon":-98.19982},"responsable":"Organización social","sexo":"Femenino","type":"Física/Material"},{"Fecha":{"human":"May 1, 2013, 12:00:00 am -05:00 CDT","unix":1367384400},"place":{"name":"Tlaxcala,Tlaxcala","lat":19.31905,"lon":-98.19982},"responsable":"Organización social","sexo":"Masculino","type":"Física/Material"},{"Fecha":{"human":"May 1, 2013, 12:00:00 am -05:00 CDT","unix":1367384400},"place":{"name":"Tlaxcala,Tlaxcala","lat":19.31905,"lon":-98.19982},"responsable":"Organización social","sexo":"Femenino","type":"Física/Material"},{"Fecha":{"human":"May 1, 2013, 12:00:00 am -05:00 CDT","unix":1367384400},"place":{"name":"Tlaxcala,Tlaxcala","lat":19.31905,"lon":-98.19982},"responsable":"Organización social","sexo":"Masculino","type":"Física/Material"},{"Fecha":{"human":"May 3, 2013, 12:00:00 am -05:00 CDT","unix":1367557200},"place":{"name":"Tecate,Baja California","lat":32.56717,"lon":-116.62509},"responsable":"Funcionario público","sexo":"Masculino","type":"Detención ilegal"},{"Fecha":{"human":"May 3, 2013, 12:00:00 am -05:00 CDT","unix":1367557200},"place":{"name":"Tecate,Baja California","lat":32.56717,"lon":-116.62509},"responsable":"Funcionario público","sexo":"Masculino","type":"Física/Material"},{"Fecha":{"human":"May 3, 2013, 12:00:00 am -05:00 CDT","unix":1367557200},"place":{"name":"Acapulco,Guerrero","lat":16.84942,"lon":-99.90891},"responsable":"Funcionario público","sexo":"Masculino","type":"Intimidación"},{"Fecha":{"human":"May 3, 2013, 12:00:00 am -05:00 CDT","unix":1367557200},"place":{"name":"Acapulco,Guerrero","lat":16.84942,"lon":-99.90891},"responsable":"Funcionario público","sexo":"Masculino","type":"Intimidación"},{"Fecha":{"human":"May 6, 2013, 12:00:00 am -05:00 CDT","unix":1367816400},"place":{"name":"Coatzacoalcos,Veracruz","lat":18.14905,"lon":-94.4447},"responsable":"Funcionario público","sexo":"Femenino","type":"Amenaza"},{"Fecha":{"human":"May 6, 2013, 12:00:00 am -05:00 CDT","unix":1367816400},"place":{"name":"Coatzacoalcos,Veracruz","lat":18.14905,"lon":-94.4447},"responsable":"Funcionario público","sexo":"Masculino","type":"Amenaza"},{"Fecha":{"human":"May 6, 2013, 12:00:00 am -05:00 CDT","unix":1367816400},"place":{"name":"Chilpancingo,Guerrero","lat":17.5506,"lon":-99.50578},"responsable":"Funcionario público","sexo":"Masculino","type":"Intimidación"},{"Fecha":{"human":"May 9, 2013, 12:00:00 am -05:00 CDT","unix":1368075600},"place":{"name":"Mazatlán,Sinaloa","lat":23.2329,"lon":-106.4062},"responsable":"Funcionario público","sexo":"Masculino","type":"Física/Material"},{"Fecha":{"human":"May 11, 2013, 12:00:00 am -05:00 CDT","unix":1368248400},"place":{"name":"Gomez Palacio,Coahuila","lat":25.54986,"lon":-103.47912},"responsable":"Se desconoce","sexo":"Desconoce","type":"Física/Material"},{"Fecha":{"human":"May 11, 2013, 12:00:00 am -05:00 CDT","unix":1368248400},"place":{"name":"Ciudad Lerdo,Coahuila","lat":25.538195,"lon":-103.53153},"responsable":"Se desconoce","sexo":"Desconoce","type":"Física/Material"},{"Fecha":{"human":"May 11, 2013, 12:00:00 am -05:00 CDT","unix":1368248400},"place":{"name":"Ciudad Lerdo,Coahuila","lat":25.538195,"lon":-103.53153},"responsable":"Se desconoce","sexo":"Desconoce","type":"Física/Material"},{"Fecha":{"human":"May 12, 2013, 12:00:00 am -05:00 CDT","unix":1368334800},"place":{"name":"Nuevo Laredo,Tamaulipas","lat":27.47629,"lon":-99.51639},"responsable":"Se desconoce","sexo":"No aplica","type":"Ataque cibernético"},{"Fecha":{"human":"May 12, 2013, 12:00:00 am -05:00 CDT","unix":1368334800},"place":{"name":"Gomez Palacio,Coahuila","lat":25.54986,"lon":-103.47912},"responsable":"Se desconoce","sexo":"Desconoce","type":"Física/Material"},{"Fecha":{"human":"May 12, 2013, 12:00:00 am -05:00 CDT","unix":1368334800},"place":{"name":"Ciudad Lerdo,Coahuila","lat":25.538195,"lon":-103.53153},"responsable":"Se desconoce","sexo":"Desconoce","type":"Física/Material"},{"Fecha":{"human":"May 13, 2013, 12:00:00 am -05:00 CDT","unix":1368421200},"place":{"name":"Comitán,Chiapas","lat":16.2471,"lon":-92.13515},"responsable":"Organización social","sexo":"Femenino","type":"Física/Material"},{"Fecha":{"human":"May 14, 2013, 12:00:00 am -05:00 CDT","unix":1368507600},"place":{"name":"La Montaña,Guerrero","lat":18.36341,"lon":-100.30976},"responsable":"Funcionario público","sexo":"Masculino","type":"Física/Material"},{"Fecha":{"human":"May 14, 2013, 12:00:00 am -05:00 CDT","unix":1368507600},"place":{"name":"Frontera Hidalgo,Chiapas","lat":14.75148,"lon":-92.20712},"responsable":"Funcionario público","sexo":"Masculino","type":"Física/Material"},{"Fecha":{"human":"May 15, 2013, 12:00:00 am -05:00 CDT","unix":1368594000},"place":{"name":"Chilpancingo,Guerrero","lat":17.5506,"lon":-99.50578},"responsable":"Funcionario público","sexo":"Masculino","type":"Física/Material"},{"Fecha":{"human":"May 15, 2013, 12:00:00 am -05:00 CDT","unix":1368594000},"place":{"name":"Chilpancingo,Guerrero","lat":17.5506,"lon":-99.50578},"responsable":"Funcionario público","sexo":"Masculino","type":"Física/Material"},{"Fecha":{"human":"May 15, 2013, 12:00:00 am -05:00 CDT","unix":1368594000},"place":{"name":"La Montaña,Guerrero","lat":18.36341,"lon":-100.30976},"responsable":"Funcionario público","sexo":"Masculino","type":"Intimidación"},{"Fecha":{"human":"May 15, 2013, 12:00:00 am -05:00 CDT","unix":1368594000},"place":{"name":"Monterrey,Nuevo León","lat":25.67507,"lon":-100.31847},"responsable":"Funcionario público","sexo":"Masculino","type":"Intimidación"},{"Fecha":{"human":"May 16, 2013, 12:00:00 am -05:00 CDT","unix":1368680400},"place":{"name":"San Cristobal,Chiapas","lat":16.73176,"lon":-92.64126},"responsable":"Funcionario público","sexo":"Masculino","type":"Física/Material"},{"Fecha":{"human":"May 16, 2013, 12:00:00 am -05:00 CDT","unix":1368680400},"place":{"name":"San Cristobal,Chiapas","lat":16.73176,"lon":-92.64126},"responsable":"Partido político","sexo":"Masculino","type":"Física/Material"},{"Fecha":{"human":"May 16, 2013, 12:00:00 am -05:00 CDT","unix":1368680400},"place":{"name":"San Cristobal,Chiapas","lat":16.73176,"lon":-92.64126},"responsable":"Partido político","sexo":"Femenino","type":"Física/Material"},{"Fecha":{"human":"May 16, 2013, 12:00:00 am -05:00 CDT","unix":1368680400},"place":{"name":"San Cristobal,Chiapas","lat":16.73176,"lon":-92.64126},"responsable":"Partido político","sexo":"Femenino","type":"Física/Material"},{"Fecha":{"human":"May 16, 2013, 12:00:00 am -05:00 CDT","unix":1368680400},"place":{"name":"San Cristobal,Chiapas","lat":16.73176,"lon":-92.64126},"responsable":"Partido político","sexo":"Masculino","type":"Física/Material"},{"Fecha":{"human":"May 18, 2013, 12:00:00 am -05:00 CDT","unix":1368853200},"place":{"name":"Oaxaca,Oaxaca","lat":17,"lon":-96.5},"responsable":"Funcionario público","sexo":"Masculino","type":"Detención ilegal"},{"Fecha":{"human":"May 18, 2013, 12:00:00 am -05:00 CDT","unix":1368853200},"place":{"name":"Oaxaca,Oaxaca","lat":17,"lon":-96.5},"responsable":"Funcionario público","sexo":"Masculino","type":"Detención ilegal"},{"Fecha":{"human":"May 19, 2013, 12:00:00 am -05:00 CDT","unix":1368939600},"place":{"name":"Nuevo Solistahuacan,Chiapas","lat":17.21162,"lon":-92.85475},"responsable":"Funcionario público","sexo":"Femenino","type":"Detención ilegal"},{"Fecha":{"human":"May 20, 2013, 12:00:00 am -05:00 CDT","unix":1369026000},"place":{"name":"Álamo Temapache,Veracruz","lat":21.06611,"lon":-97.64207},"responsable":"Particular","sexo":"Masculino","type":"Amenaza"},{"Fecha":{"human":"May 20, 2013, 12:00:00 am -05:00 CDT","unix":1369026000},"place":{"name":"Chilpancingo,Guerrero","lat":17.5506,"lon":-99.50578},"responsable":"Se desconoce","sexo":"Masculino","type":"Amenaza"},{"Fecha":{"human":"May 21, 2013, 12:00:00 am -05:00 CDT","unix":1369112400},"place":{"name":"Xalapa,Veracruz","lat":19.53124,"lon":-96.91589},"responsable":"Funcionario público","sexo":"Masculino","type":"Intimidación"},{"Fecha":{"human":"May 22, 2013, 12:00:00 am -05:00 CDT","unix":1369198800},"place":{"name":"Ciudad Juárez,Chihuahua","lat":31.72024,"lon":-106.46084},"responsable":"Partido político","sexo":"Femenino","type":"Intimidación"},{"Fecha":{"human":"May 24, 2013, 12:00:00 am -05:00 CDT","unix":1369371600},"place":{"name":"Oaxaca,Oaxaca","lat":17,"lon":-96.5},"responsable":"Crimen organizado","sexo":"Masculino","type":"Amenaza"},{"Fecha":{"human":"June 2, 2013, 12:00:00 am -05:00 CDT","unix":1370149200},"place":{"name":"Culiacán,Sinaloa","lat":24.79032,"lon":-107.38782},"responsable":"Funcionario público","sexo":"Masculino","type":"Detención ilegal"},{"Fecha":{"human":"June 4, 2013, 12:00:00 am -05:00 CDT","unix":1370322000},"place":{"name":"Culiacán,Sinaloa","lat":24.79032,"lon":-107.38782},"responsable":"Funcionario público","sexo":"Masculino","type":"Detención ilegal"},{"Fecha":{"human":"June 5, 2013, 12:00:00 am -05:00 CDT","unix":1370408400},"place":{"name":"Comitán,Chiapas","lat":16.2471,"lon":-92.13515},"responsable":"Funcionario público","sexo":"Femenino","type":"Amenaza"},{"Fecha":{"human":"June 5, 2013, 12:00:00 am -05:00 CDT","unix":1370408400},"place":{"name":"Durango,Durango","lat":24.02032,"lon":-104.65756},"responsable":"Se desconoce","sexo":"Femenino","type":"Física/Material"},{"Fecha":{"human":"June 5, 2013, 12:00:00 am -05:00 CDT","unix":1370408400},"place":{"name":"Durango,Durango","lat":24.02032,"lon":-104.65756},"responsable":"Se desconoce","sexo":"Masculino","type":"Física/Material"},{"Fecha":{"human":"June 7, 2013, 12:00:00 am -05:00 CDT","unix":1370581200},"place":{"name":"Torreón,Coahuila","lat":25.54389,"lon":-103.41898},"responsable":"Funcionario público","sexo":"Masculino","type":"Amenaza"},{"Fecha":{"human":"June 10, 2013, 12:00:00 am -05:00 CDT","unix":1370840400},"place":{"name":"Distrito Federal,Distrito Federal","lat":-15.77972,"lon":-47.92972},"responsable":"Funcionario público","sexo":"Masculino","type":"Física/Material"},{"Fecha":{"human":"June 11, 2013, 12:00:00 am -05:00 CDT","unix":1370926800},"place":{"name":"Nuevo Laredo,Tamaulipas","lat":27.47629,"lon":-99.51639},"responsable":"Organización social","sexo":"No aplica","type":"Amenaza"},{"Fecha":{"human":"June 11, 2013, 12:00:00 am -05:00 CDT","unix":1370926800},"place":{"name":"Puebla,Puebla","lat":19.03793,"lon":-98.20346},"responsable":"Funcionario público","sexo":"Masculino","type":"Amenaza"},{"Fecha":{"human":"June 13, 2013, 12:00:00 am -05:00 CDT","unix":1371099600},"place":{"name":"Distrito Federal,Distrito Federal","lat":-15.77972,"lon":-47.92972},"responsable":"Se desconoce","sexo":"Masculino","type":"Amenaza"},{"Fecha":{"human":"June 17, 2013, 12:00:00 am -05:00 CDT","unix":1371445200},"place":{"name":"Queretaro,Queretaro","lat":20.58806,"lon":-100.38806},"responsable":"Partido político","sexo":"Masculino","type":"Física/Material"},{"Fecha":{"human":"June 20, 2013, 12:00:00 am -05:00 CDT","unix":1371704400},"place":{"name":"Tijuana,Baja California","lat":32.5027,"lon":-117.00371},"responsable":"Se desconoce","sexo":"Masculino","type":"Física/Material"},{"Fecha":{"human":"June 20, 2013, 12:00:00 am -05:00 CDT","unix":1371704400},"place":{"name":"Tijuana,Baja California","lat":32.5027,"lon":-117.00371},"responsable":"Funcionario público","sexo":"Masculino","type":"Intimidación"},{"Fecha":{"human":"June 24, 2013, 12:00:00 am -05:00 CDT","unix":1372050000},"place":{"name":"Acapulco,Guerrero","lat":16.84942,"lon":-99.90891},"responsable":"Crimen organizado","sexo":"Masculino","type":"Amenaza"},{"Fecha":{"human":"June 24, 2013, 12:00:00 am -05:00 CDT","unix":1372050000},"place":{"name":"Ciudad Victoria,Tamaulipas","lat":23.74174,"lon":-99.14599},"responsable":"Crimen organizado","sexo":"Masculino","type":"Asesinato"},{"Fecha":{"human":"June 24, 2013, 12:00:00 am -05:00 CDT","unix":1372050000},"place":{"name":"Acapulco,Guerrero","lat":16.84942,"lon":-99.90891},"responsable":"Crimen organizado","sexo":"Masculino","type":"Desplazamiento"},{"Fecha":{"human":"June 28, 2013, 12:00:00 am -05:00 CDT","unix":1372395600},"place":{"name":"Culiacán,Sinaloa","lat":24.79032,"lon":-107.38782},"responsable":"Particular","sexo":"Masculino","type":"Física/Material"},{"Fecha":{"human":"July 1, 2013, 12:00:00 am -05:00 CDT","unix":1372654800},"place":{"name":"Los Reyes,Michoacán","lat":19.64909,"lon":-102.41364},"responsable":"Crimen organizado","sexo":"Masculino","type":"Amenaza"},{"Fecha":{"human":"July 1, 2013, 12:00:00 am -05:00 CDT","unix":1372654800},"place":{"name":"Minatitlán,Veracruz","lat":18.00011,"lon":-94.5569},"responsable":"Crimen organizado","sexo":"Masculino","type":"Amenaza"},{"Fecha":{"human":"July 2, 2013, 12:00:00 am -05:00 CDT","unix":1372741200},"place":{"name":"Mexicali,Baja California","lat":32.62781,"lon":-115.45446},"responsable":"Crimen organizado","sexo":"Masculino","type":"Amenaza"},{"Fecha":{"human":"July 3, 2013, 12:00:00 am -05:00 CDT","unix":1372827600},"place":{"name":"Culiacán,Sinaloa","lat":24.79032,"lon":-107.38782},"responsable":"Se desconoce","sexo":"No aplica","type":"Ataque cibernético"},{"Fecha":{"human":"July 4, 2013, 12:00:00 am -05:00 CDT","unix":1372914000},"place":{"name":"Nuevo Laredo,Tamaulipas","lat":27.47629,"lon":-99.51639},"responsable":"Se desconoce","sexo":"No aplica","type":"Ataque cibernético"},{"Fecha":{"human":"July 4, 2013, 12:00:00 am -05:00 CDT","unix":1372914000},"place":{"name":"Saltillo,Coahuila","lat":25.42321,"lon":-101.0053},"responsable":"Se desconoce","sexo":"No aplica","type":"Ataque cibernético"},{"Fecha":{"human":"July 4, 2013, 12:00:00 am -05:00 CDT","unix":1372914000},"place":{"name":"Tlalnepantla,Estado de México","lat":19.54005,"lon":-99.19538},"responsable":"Se desconoce","sexo":"Masculino","type":"Física/Material"},{"Fecha":{"human":"July 4, 2013, 12:00:00 am -05:00 CDT","unix":1372914000},"place":{"name":"Tlalnepantla,Estado de México","lat":19.54005,"lon":-99.19538},"responsable":"Se desconoce","sexo":"Masculino","type":"Física/Material"},{"Fecha":{"human":"July 6, 2013, 12:00:00 am -05:00 CDT","unix":1373086800},"place":{"name":"Putla de Guerrero,Oaxaca","lat":17.02733,"lon":-97.87028},"responsable":"Particular","sexo":"No aplica","type":"Intimidación"},{"Fecha":{"human":"July 7, 2013, 12:00:00 am -05:00 CDT","unix":1373173200},"place":{"name":"Las Choapas,Veracruz","lat":17.67853,"lon":-94.00406},"responsable":"Organización social","sexo":"No aplica","type":"Intimidación"},{"Fecha":{"human":"July 7, 2013, 12:00:00 am -05:00 CDT","unix":1373173200},"place":{"name":"Mexicali,Baja California","lat":32.62781,"lon":-115.45446},"responsable":"Funcionario público","sexo":"Masculino","type":"Intimidación"},{"Fecha":{"human":"July 10, 2013, 12:00:00 am -05:00 CDT","unix":1373432400},"place":{"name":"Celaya,Guanajuato","lat":20.52353,"lon":-100.8157},"responsable":"Funcionario público","sexo":"Femenino","type":"Detención ilegal"},{"Fecha":{"human":"July 10, 2013, 12:00:00 am -05:00 CDT","unix":1373432400},"place":{"name":"Benito Juárez,Quintana Roo","lat":21.17429,"lon":-86.84656},"responsable":"Funcionario público","sexo":"No aplica","type":"Intimidación"},{"Fecha":{"human":"July 15, 2013, 12:00:00 am -05:00 CDT","unix":1373864400},"place":{"name":"Ciudad Victoria,Tamaulipas","lat":23.74174,"lon":-99.14599},"responsable":"Funcionario público","sexo":"Masculino","type":"Intimidación"},{"Fecha":{"human":"July 17, 2013, 12:00:00 am -05:00 CDT","unix":1374037200},"place":{"name":"Oaxaca,Oaxaca","lat":17,"lon":-96.5},"sexo":"Masculino","type":"Asesinato"},{"Fecha":{"human":"July 17, 2013, 12:00:00 am -05:00 CDT","unix":1374037200},"place":{"name":"Distrito Federal,Distrito Federal","lat":-15.77972,"lon":-47.92972},"responsable":"Funcionario público","sexo":"Masculino","type":"Detención ilegal"},{"Fecha":{"human":"July 20, 2013, 12:00:00 am -05:00 CDT","unix":1374296400},"place":{"name":"Playas de Rosarito,Baja California","lat":32.36044,"lon":-117.04645},"sexo":"Masculino","type":"Física/Material"},{"Fecha":{"human":"July 22, 2013, 12:00:00 am -05:00 CDT","unix":1374469200},"place":{"name":"Los Reyes,Michoacán","lat":19.64909,"lon":-102.41364},"responsable":"Funcionario público","sexo":"Masculino","type":"Física/Material"},{"Fecha":{"human":"July 25, 2013, 12:00:00 am -05:00 CDT","unix":1374728400},"place":{"name":"Puebla,Puebla","lat":19.03793,"lon":-98.20346},"sexo":"No aplica","type":"Física/Material"},{"Fecha":{"human":"July 26, 2013, 12:00:00 am -05:00 CDT","unix":1374814800},"place":{"name":"Loma Bonita,Oaxaca","lat":18.10721,"lon":-95.87904},"responsable":"Funcionario público","sexo":"No aplica","type":"Física/Material"},{"Fecha":{"human":"July 27, 2013, 12:00:00 am -05:00 CDT","unix":1374901200},"place":{"name":"Loma Bonita,Oaxaca","lat":18.10721,"lon":-95.87904},"responsable":"Funcionario público","sexo":"No aplica","type":"Física/Material"},{"Fecha":{"human":"August 1, 2013, 12:00:00 am -05:00 CDT","unix":1375333200},"place":{"name":"Chetumal,Quintana Roo","lat":18.51413,"lon":-88.30381},"responsable":"Funcionario público","sexo":"Masculino","type":"Amenaza"},{"Fecha":{"human":"August 1, 2013, 12:00:00 am -05:00 CDT","unix":1375333200},"place":{"name":"Hermosillo,Sonora","lat":29.1026,"lon":-110.97732},"responsable":"Funcionario público","sexo":"Masculino","type":"Física/Material"},{"Fecha":{"human":"August 2, 2013, 12:00:00 am -05:00 CDT","unix":1375419600},"place":{"name":"Culiacán,Sinaloa","lat":24.79032,"lon":-107.38782},"responsable":"Funcionario público","sexo":"Masculino","type":"Detención ilegal"},{"Fecha":{"human":"August 2, 2013, 12:00:00 am -05:00 CDT","unix":1375419600},"place":{"name":"Tekax,Yucatán","lat":20.04039,"lon":-89.26448},"responsable":"Funcionario público","sexo":"Masculino","type":"Intimidación"},{"Fecha":{"human":"August 4, 2013, 12:00:00 am -05:00 CDT","unix":1375592400},"place":{"name":"Tijuana,Baja California","lat":32.5027,"lon":-117.00371},"sexo":"Femenino","type":"Amenaza"},{"Fecha":{"human":"August 10, 2013, 12:00:00 am -05:00 CDT","unix":1376110800},"place":{"name":"Oaxaca,Oaxaca","lat":17,"lon":-96.5},"sexo":"Masculino","type":"Física/Material"},{"Fecha":{"human":"August 13, 2013, 12:00:00 am -05:00 CDT","unix":1376370000},"place":{"name":"Miguel Hidalgo,Distrito Federal","lat":19.43411,"lon":-99.20024},"sexo":"No aplica","type":"Ataque cibernético"},{"Fecha":{"human":"August 14, 2013, 12:00:00 am -05:00 CDT","unix":1376456400},"place":{"name":"Aquila,Michoacán","lat":18.37585,"lon":-103.2231},"sexo":"Masculino","type":"Física/Material"},{"Fecha":{"human":"August 16, 2013, 12:00:00 am -05:00 CDT","unix":1376629200},"place":{"name":"Tamiahua,Veracruz","lat":21.28886,"lon":-97.49987},"responsable":"Funcionario público","sexo":"Masculino","type":"Amenaza"},{"Fecha":{"human":"August 19, 2013, 12:00:00 am -05:00 CDT","unix":1376888400},"place":{"name":"Xalapa,Veracruz","lat":19.53124,"lon":-96.91589},"responsable":"Crimen organizado","sexo":"Femenino","type":"Amenaza"},{"Fecha":{"human":"August 20, 2013, 12:00:00 am -05:00 CDT","unix":1376974800},"place":{"name":"Distrito Federal,Distrito Federal","lat":-15.77972,"lon":-47.92972},"responsable":"Crimen organizado","sexo":"Masculino","type":"Física/Material"},{"Fecha":{"human":"August 20, 2013, 12:00:00 am -05:00 CDT","unix":1376974800},"place":{"name":"Distrito Federal,Distrito Federal","lat":-15.77972,"lon":-47.92972},"sexo":"Masculino","type":"Física/Material"},{"Fecha":{"human":"August 23, 2013, 12:00:00 am -05:00 CDT","unix":1377234000},"place":{"name":"Playas de Rosarito,Baja California","lat":32.36044,"lon":-117.04645},"responsable":"Partido político","sexo":"Femenino","type":"Intimidación"},{"Fecha":{"human":"August 26, 2013, 12:00:00 am -05:00 CDT","unix":1377493200},"place":{"name":"Tijuana,Baja California","lat":32.5027,"lon":-117.00371},"responsable":"Funcionario público","sexo":"Masculino","type":"Acción legal/calumnia/difamación"},{"Fecha":{"human":"August 28, 2013, 12:00:00 am -05:00 CDT","unix":1377666000},"place":{"name":"Zacatecas,Zacatecas","lat":23.25,"lon":-103},"responsable":"Funcionario público","sexo":"Masculino","type":"Intimidación"},{"Fecha":{"human":"August 28, 2013, 12:00:00 am -05:00 CDT","unix":1377666000},"place":{"name":"Zacatecas,Zacatecas","lat":23.25,"lon":-103},"responsable":"Funcionario público","sexo":"Masculino","type":"Intimidación"},{"Fecha":{"human":"August 28, 2013, 12:00:00 am -05:00 CDT","unix":1377666000},"place":{"name":"Zacatecas,Zacatecas","lat":23.25,"lon":-103},"responsable":"Funcionario público","sexo":"Femenino","type":"Intimidación"},{"Fecha":{"human":"August 28, 2013, 12:00:00 am -05:00 CDT","unix":1377666000},"place":{"name":"Zacatecas,Zacatecas","lat":23.25,"lon":-103},"responsable":"Funcionario público","sexo":"Masculino","type":"Intimidación"},{"Fecha":{"human":"August 28, 2013, 12:00:00 am -05:00 CDT","unix":1377666000},"place":{"name":"Zacatecas,Zacatecas","lat":23.25,"lon":-103},"responsable":"Funcionario público","sexo":"Masculino","type":"Intimidación"},{"Fecha":{"human":"August 28, 2013, 12:00:00 am -05:00 CDT","unix":1377666000},"place":{"name":"Fresnillo,Zacatecas","lat":23.18126,"lon":-102.87136},"responsable":"Funcionario público","sexo":"Masculino","type":"Intimidación"},{"Fecha":{"human":"August 28, 2013, 12:00:00 am -05:00 CDT","unix":1377666000},"place":{"name":"Fresnillo,Zacatecas","lat":23.18126,"lon":-102.87136},"responsable":"Funcionario público","sexo":"Masculino","type":"Intimidación"},{"Fecha":{"human":"August 28, 2013, 12:00:00 am -05:00 CDT","unix":1377666000},"place":{"name":"Zacatecas,Zacatecas","lat":23.25,"lon":-103},"responsable":"Funcionario público","sexo":"Masculino","type":"Intimidación"},{"Fecha":{"human":"September 1, 2013, 12:00:00 am -05:00 CDT","unix":1378011600},"place":{"name":"Distrito Federal,Distrito Federal","lat":-15.77972,"lon":-47.92972},"responsable":"Funcionario público","sexo":"Masculino","type":"Detención ilegal"},{"Fecha":{"human":"September 1, 2013, 12:00:00 am -05:00 CDT","unix":1378011600},"place":{"name":"Distrito Federal,Distrito Federal","lat":-15.77972,"lon":-47.92972},"responsable":"Funcionario público","sexo":"Masculino","type":"Detención ilegal"},{"Fecha":{"human":"September 1, 2013, 12:00:00 am -05:00 CDT","unix":1378011600},"place":{"name":"Distrito Federal,Distrito Federal","lat":-15.77972,"lon":-47.92972},"responsable":"Funcionario público","sexo":"Femenino","type":"Detención ilegal"},{"Fecha":{"human":"September 1, 2013, 12:00:00 am -05:00 CDT","unix":1378011600},"place":{"name":"Distrito Federal,Distrito Federal","lat":-15.77972,"lon":-47.92972},"responsable":"Funcionario público","sexo":"Masculino","type":"Detención ilegal"},{"Fecha":{"human":"September 1, 2013, 12:00:00 am -05:00 CDT","unix":1378011600},"place":{"name":"Distrito Federal,Distrito Federal","lat":-15.77972,"lon":-47.92972},"responsable":"Funcionario público","sexo":"Masculino","type":"Física/Material"},{"Fecha":{"human":"September 1, 2013, 12:00:00 am -05:00 CDT","unix":1378011600},"place":{"name":"Distrito Federal,Distrito Federal","lat":-15.77972,"lon":-47.92972},"responsable":"Funcionario público","sexo":"Masculino","type":"Física/Material"},{"Fecha":{"human":"September 2, 2013, 12:00:00 am -05:00 CDT","unix":1378098000},"place":{"name":"Benito Juárez,Quintana Roo","lat":21.17429,"lon":-86.84656},"responsable":"Se desconoce","sexo":"Femenino","type":"Intimidación"},{"Fecha":{"human":"September 11, 2013, 12:00:00 am -05:00 CDT","unix":1378875600},"place":{"name":"Benito Juárez,Quintana Roo","lat":21.17429,"lon":-86.84656},"responsable":"Se desconoce","sexo":"No aplica","type":"Intimidación"},{"Fecha":{"human":"September 11, 2013, 12:00:00 am -05:00 CDT","unix":1378875600},"place":{"name":"Tijuana,Baja California","lat":32.5027,"lon":-117.00371},"responsable":"Se desconoce","sexo":"No aplica","type":"Intimidación"},{"Fecha":{"human":"September 11, 2013, 12:00:00 am -05:00 CDT","unix":1378875600},"place":{"name":"Tijuana,Baja California","lat":32.5027,"lon":-117.00371},"responsable":"Se desconoce","sexo":"No aplica","type":"Intimidación"},{"Fecha":{"human":"September 14, 2013, 12:00:00 am -05:00 CDT","unix":1379134800},"place":{"name":"Xalapa,Veracruz","lat":19.53124,"lon":-96.91589},"responsable":"Funcionario público","sexo":"Masculino","type":"Detención ilegal"},{"Fecha":{"human":"September 14, 2013, 12:00:00 am -05:00 CDT","unix":1379134800},"place":{"name":"Xalapa,Veracruz","lat":19.53124,"lon":-96.91589},"responsable":"Funcionario público","sexo":"Masculino","type":"Detención ilegal"},{"Fecha":{"human":"September 14, 2013, 12:00:00 am -05:00 CDT","unix":1379134800},"place":{"name":"Xalapa,Veracruz","lat":19.53124,"lon":-96.91589},"responsable":"Se desconoce","sexo":"Femenino","type":"Física/Material"},{"Fecha":{"human":"September 14, 2013, 12:00:00 am -05:00 CDT","unix":1379134800},"place":{"name":"Xalapa,Veracruz","lat":19.53124,"lon":-96.91589},"responsable":"Se desconoce","sexo":"Femenino","type":"Física/Material"},{"Fecha":{"human":"September 14, 2013, 12:00:00 am -05:00 CDT","unix":1379134800},"place":{"name":"Xalapa,Veracruz","lat":19.53124,"lon":-96.91589},"responsable":"Funcionario público","sexo":"Masculino","type":"Física/Material"},{"Fecha":{"human":"September 14, 2013, 12:00:00 am -05:00 CDT","unix":1379134800},"place":{"name":"Xalapa,Veracruz","lat":19.53124,"lon":-96.91589},"responsable":"Funcionario público","sexo":"Masculino","type":"Intimidación"},{"Fecha":{"human":"September 14, 2013, 12:00:00 am -05:00 CDT","unix":1379134800},"place":{"name":"Xalapa,Veracruz","lat":19.53124,"lon":-96.91589},"responsable":"Funcionario público","sexo":"Masculino","type":"Intimidación"},{"Fecha":{"human":"September 15, 2013, 12:00:00 am -05:00 CDT","unix":1379221200},"place":{"name":"Xalapa,Veracruz","lat":19.53124,"lon":-96.91589},"responsable":"Se desconoce","sexo":"No aplica","type":"Ataque cibernético"},{"Fecha":{"human":"September 15, 2013, 12:00:00 am -05:00 CDT","unix":1379221200},"place":{"name":"Rosarito,Baja California","lat":32.36044,"lon":-117.04645},"responsable":"Funcionario público","sexo":"Femenino","type":"Física/Material"},{"Fecha":{"human":"September 18, 2013, 12:00:00 am -05:00 CDT","unix":1379480400},"place":{"name":"Distrito Federal,Distrito Federal","lat":-15.77972,"lon":-47.92972},"responsable":"Funcionario público","sexo":"Masculino","type":"Intimidación"},{"Fecha":{"human":"September 19, 2013, 12:00:00 am -05:00 CDT","unix":1379566800},"place":{"name":"Tuxtla Gutiérrez,Chiapas","lat":16.75973,"lon":-93.11308},"responsable":"Crimen organizado","sexo":"Masculino","type":"Amenaza"},{"Fecha":{"human":"September 19, 2013, 12:00:00 am -05:00 CDT","unix":1379566800},"place":{"name":"Benito Juárez,Quintana Roo","lat":21.17429,"lon":-86.84656},"responsable":"Particular","sexo":"Masculino","type":"Física/Material"},{"Fecha":{"human":"September 19, 2013, 12:00:00 am -05:00 CDT","unix":1379566800},"place":{"name":"San Pedro,Coahuila","lat":25.79691,"lon":-103.03703},"responsable":"Particular","sexo":"No aplica","type":"Física/Material"},{"Fecha":{"human":"September 25, 2013, 12:00:00 am -05:00 CDT","unix":1380085200},"place":{"name":"Veracruz,Veracruz","lat":19.33333,"lon":-96.66667},"responsable":"Funcionario público","sexo":"Masculino","type":"Intimidación"},{"Fecha":{"human":"October 1, 2013, 12:00:00 am -05:00 CDT","unix":1380603600},"place":{"name":"Distrito Federal,Distrito Federal","lat":-15.77972,"lon":-47.92972},"responsable":"Funcionario público","sexo":"Masculino","type":"Intimidación"},{"Fecha":{"human":"October 2, 2013, 12:00:00 am -05:00 CDT","unix":1380690000},"place":{"name":"Distrito Federal,Distrito Federal","lat":-15.77972,"lon":-47.92972},"responsable":"Funcionario público","sexo":"Masculino","type":"Amenaza"},{"Fecha":{"human":"October 2, 2013, 12:00:00 am -05:00 CDT","unix":1380690000},"place":{"name":"Distrito Federal,Distrito Federal","lat":-15.77972,"lon":-47.92972},"responsable":"Funcionario público","sexo":"Masculino","type":"Amenaza"},{"Fecha":{"human":"October 2, 2013, 12:00:00 am -05:00 CDT","unix":1380690000},"place":{"name":"Distrito Federal,Distrito Federal","lat":-15.77972,"lon":-47.92972},"responsable":"Funcionario público","sexo":"Masculino","type":"Detención ilegal"},{"Fecha":{"human":"October 2, 2013, 12:00:00 am -05:00 CDT","unix":1380690000},"place":{"name":"Distrito Federal,Distrito Federal","lat":-15.77972,"lon":-47.92972},"responsable":"Funcionario público","sexo":"Masculino","type":"Detención ilegal"},{"Fecha":{"human":"October 2, 2013, 12:00:00 am -05:00 CDT","unix":1380690000},"place":{"name":"Distrito Federal,Distrito Federal","lat":-15.77972,"lon":-47.92972},"responsable":"Funcionario público","sexo":"Femenino","type":"Detención ilegal"},{"Fecha":{"human":"October 2, 2013, 12:00:00 am -05:00 CDT","unix":1380690000},"place":{"name":"Distrito Federal,Distrito Federal","lat":-15.77972,"lon":-47.92972},"responsable":"Funcionario público","sexo":"Femenino","type":"Detención ilegal"},{"Fecha":{"human":"October 2, 2013, 12:00:00 am -05:00 CDT","unix":1380690000},"place":{"name":"Distrito Federal,Distrito Federal","lat":-15.77972,"lon":-47.92972},"responsable":"Funcionario público","sexo":"Masculino","type":"Física/Material"},{"Fecha":{"human":"October 2, 2013, 12:00:00 am -05:00 CDT","unix":1380690000},"place":{"name":"Distrito Federal,Distrito Federal","lat":-15.77972,"lon":-47.92972},"responsable":"Funcionario público","sexo":"Femenino","type":"Física/Material"},{"Fecha":{"human":"October 2, 2013, 12:00:00 am -05:00 CDT","unix":1380690000},"place":{"name":"Distrito Federal,Distrito Federal","lat":-15.77972,"lon":-47.92972},"responsable":"Funcionario público","sexo":"Femenino","type":"Física/Material"},{"Fecha":{"human":"October 2, 2013, 12:00:00 am -05:00 CDT","unix":1380690000},"place":{"name":"Distrito Federal,Distrito Federal","lat":-15.77972,"lon":-47.92972},"responsable":"Funcionario público","sexo":"Masculino","type":"Física/Material"},{"Fecha":{"human":"October 2, 2013, 12:00:00 am -05:00 CDT","unix":1380690000},"place":{"name":"Distrito Federal,Distrito Federal","lat":-15.77972,"lon":-47.92972},"responsable":"Funcionario público","sexo":"Masculino","type":"Física/Material"},{"Fecha":{"human":"October 2, 2013, 12:00:00 am -05:00 CDT","unix":1380690000},"place":{"name":"Distrito Federal,Distrito Federal","lat":-15.77972,"lon":-47.92972},"responsable":"Funcionario público","sexo":"Masculino","type":"Física/Material"},{"Fecha":{"human":"October 2, 2013, 12:00:00 am -05:00 CDT","unix":1380690000},"place":{"name":"Distrito Federal,Distrito Federal","lat":-15.77972,"lon":-47.92972},"responsable":"Funcionario público","sexo":"Masculino","type":"Física/Material"},{"Fecha":{"human":"October 2, 2013, 12:00:00 am -05:00 CDT","unix":1380690000},"place":{"name":"Distrito Federal,Distrito Federal","lat":-15.77972,"lon":-47.92972},"responsable":"Funcionario público","sexo":"Masculino","type":"Física/Material"},{"Fecha":{"human":"October 2, 2013, 12:00:00 am -05:00 CDT","unix":1380690000},"place":{"name":"Distrito Federal,Distrito Federal","lat":-15.77972,"lon":-47.92972},"responsable":"Funcionario público","sexo":"Masculino","type":"Física/Material"},{"Fecha":{"human":"October 2, 2013, 12:00:00 am -05:00 CDT","unix":1380690000},"place":{"name":"Distrito Federal,Distrito Federal","lat":-15.77972,"lon":-47.92972},"responsable":"Funcionario público","sexo":"Femenino","type":"Física/Material"},{"Fecha":{"human":"October 2, 2013, 12:00:00 am -05:00 CDT","unix":1380690000},"place":{"name":"Distrito Federal,Distrito Federal","lat":-15.77972,"lon":-47.92972},"responsable":"Funcionario público","sexo":"Femenino","type":"Física/Material"},{"Fecha":{"human":"October 2, 2013, 12:00:00 am -05:00 CDT","unix":1380690000},"place":{"name":"Distrito Federal,Distrito Federal","lat":-15.77972,"lon":-47.92972},"responsable":"Funcionario público","sexo":"Masculino","type":"Física/Material"},{"Fecha":{"human":"October 2, 2013, 12:00:00 am -05:00 CDT","unix":1380690000},"place":{"name":"Distrito Federal,Distrito Federal","lat":-15.77972,"lon":-47.92972},"responsable":"Funcionario público","sexo":"Masculino","type":"Física/Material"},{"Fecha":{"human":"October 2, 2013, 12:00:00 am -05:00 CDT","unix":1380690000},"place":{"name":"Distrito Federal,Distrito Federal","lat":-15.77972,"lon":-47.92972},"responsable":"Funcionario público","sexo":"Masculino","type":"Física/Material"},{"Fecha":{"human":"October 2, 2013, 12:00:00 am -05:00 CDT","unix":1380690000},"place":{"name":"Distrito Federal,Distrito Federal","lat":-15.77972,"lon":-47.92972},"responsable":"Particular","sexo":"Masculino","type":"Física/Material"},{"Fecha":{"human":"October 2, 2013, 12:00:00 am -05:00 CDT","unix":1380690000},"place":{"name":"Distrito Federal,Distrito Federal","lat":-15.77972,"lon":-47.92972},"responsable":"Funcionario público","sexo":"Masculino","type":"Física/Material"},{"Fecha":{"human":"October 2, 2013, 12:00:00 am -05:00 CDT","unix":1380690000},"place":{"name":"Distrito Federal,Distrito Federal","lat":-15.77972,"lon":-47.92972},"responsable":"Funcionario público","sexo":"Masculino","type":"Física/Material"},{"Fecha":{"human":"October 2, 2013, 12:00:00 am -05:00 CDT","unix":1380690000},"place":{"name":"Distrito Federal,Distrito Federal","lat":-15.77972,"lon":-47.92972},"responsable":"Funcionario público","sexo":"Masculino","type":"Física/Material"},{"Fecha":{"human":"October 2, 2013, 12:00:00 am -05:00 CDT","unix":1380690000},"place":{"name":"Distrito Federal,Distrito Federal","lat":-15.77972,"lon":-47.92972},"responsable":"Funcionario público","sexo":"Masculino","type":"Física/Material"},{"Fecha":{"human":"October 2, 2013, 12:00:00 am -05:00 CDT","unix":1380690000},"place":{"name":"Distrito Federal,Distrito Federal","lat":-15.77972,"lon":-47.92972},"responsable":"Funcionario público","sexo":"Masculino","type":"Física/Material"},{"Fecha":{"human":"October 2, 2013, 12:00:00 am -05:00 CDT","unix":1380690000},"place":{"name":"Distrito Federal,Distrito Federal","lat":-15.77972,"lon":-47.92972},"responsable":"Funcionario público","sexo":"Masculino","type":"Física/Material"},{"Fecha":{"human":"October 2, 2013, 12:00:00 am -05:00 CDT","unix":1380690000},"place":{"name":"Distrito Federal,Distrito Federal","lat":-15.77972,"lon":-47.92972},"responsable":"Organización social","sexo":"Masculino","type":"Física/Material"},{"Fecha":{"human":"October 2, 2013, 12:00:00 am -05:00 CDT","unix":1380690000},"place":{"name":"Distrito Federal,Distrito Federal","lat":-15.77972,"lon":-47.92972},"responsable":"Organización social","sexo":"Masculino","type":"Física/Material"},{"Fecha":{"human":"October 2, 2013, 12:00:00 am -05:00 CDT","unix":1380690000},"place":{"name":"Distrito Federal,Distrito Federal","lat":-15.77972,"lon":-47.92972},"responsable":"Funcionario público","sexo":"Femenino","type":"Física/Material"},{"Fecha":{"human":"October 2, 2013, 12:00:00 am -05:00 CDT","unix":1380690000},"place":{"name":"Distrito Federal,Distrito Federal","lat":-15.77972,"lon":-47.92972},"responsable":"Particular","sexo":"Masculino","type":"Física/Material"},{"Fecha":{"human":"October 2, 2013, 12:00:00 am -05:00 CDT","unix":1380690000},"place":{"name":"Distrito Federal,Distrito Federal","lat":-15.77972,"lon":-47.92972},"responsable":"Funcionario público","sexo":"Femenino","type":"Física/Material"},{"Fecha":{"human":"October 2, 2013, 12:00:00 am -05:00 CDT","unix":1380690000},"place":{"name":"Distrito Federal,Distrito Federal","lat":-15.77972,"lon":-47.92972},"responsable":"Funcionario público","sexo":"Femenino","type":"Física/Material"},{"Fecha":{"human":"October 2, 2013, 12:00:00 am -05:00 CDT","unix":1380690000},"place":{"name":"Distrito Federal,Distrito Federal","lat":-15.77972,"lon":-47.92972},"responsable":"Funcionario público","sexo":"Masculino","type":"Física/Material"},{"Fecha":{"human":"October 2, 2013, 12:00:00 am -05:00 CDT","unix":1380690000},"place":{"name":"Distrito Federal,Distrito Federal","lat":-15.77972,"lon":-47.92972},"responsable":"Funcionario público","sexo":"Femenino","type":"Física/Material"},{"Fecha":{"human":"October 2, 2013, 12:00:00 am -05:00 CDT","unix":1380690000},"place":{"name":"Distrito Federal,Distrito Federal","lat":-15.77972,"lon":-47.92972},"responsable":"Funcionario público","sexo":"Masculino","type":"Física/Material"},{"Fecha":{"human":"October 2, 2013, 12:00:00 am -05:00 CDT","unix":1380690000},"place":{"name":"Distrito Federal,Distrito Federal","lat":-15.77972,"lon":-47.92972},"responsable":"Funcionario público","sexo":"Femenino","type":"Física/Material"},{"Fecha":{"human":"October 2, 2013, 12:00:00 am -05:00 CDT","unix":1380690000},"place":{"name":"Distrito Federal,Distrito Federal","lat":-15.77972,"lon":-47.92972},"responsable":"Funcionario público","sexo":"Femenino","type":"Física/Material"},{"Fecha":{"human":"October 2, 2013, 12:00:00 am -05:00 CDT","unix":1380690000},"place":{"name":"Distrito Federal,Distrito Federal","lat":-15.77972,"lon":-47.92972},"responsable":"Funcionario público","sexo":"Masculino","type":"Física/Material"},{"Fecha":{"human":"October 2, 2013, 12:00:00 am -05:00 CDT","unix":1380690000},"place":{"name":"Distrito Federal,Distrito Federal","lat":-15.77972,"lon":-47.92972},"responsable":"Funcionario público","sexo":"Masculino","type":"Física/Material"},{"Fecha":{"human":"October 2, 2013, 12:00:00 am -05:00 CDT","unix":1380690000},"place":{"name":"Distrito Federal,Distrito Federal","lat":-15.77972,"lon":-47.92972},"responsable":"Funcionario público","sexo":"Masculino","type":"Física/Material"},{"Fecha":{"human":"October 2, 2013, 12:00:00 am -05:00 CDT","unix":1380690000},"place":{"name":"Distrito Federal,Distrito Federal","lat":-15.77972,"lon":-47.92972},"responsable":"Funcionario público","sexo":"Femenino","type":"Física/Material"},{"Fecha":{"human":"October 2, 2013, 12:00:00 am -05:00 CDT","unix":1380690000},"place":{"name":"Distrito Federal,Distrito Federal","lat":-15.77972,"lon":-47.92972},"responsable":"Funcionario público","sexo":"Masculino","type":"Física/Material"},{"Fecha":{"human":"October 2, 2013, 12:00:00 am -05:00 CDT","unix":1380690000},"place":{"name":"Distrito Federal,Distrito Federal","lat":-15.77972,"lon":-47.92972},"responsable":"Funcionario público","sexo":"Masculino","type":"Física/Material"},{"Fecha":{"human":"October 2, 2013, 12:00:00 am -05:00 CDT","unix":1380690000},"place":{"name":"Distrito Federal,Distrito Federal","lat":-15.77972,"lon":-47.92972},"responsable":"Funcionario público","sexo":"Masculino","type":"Física/Material"},{"Fecha":{"human":"October 2, 2013, 12:00:00 am -05:00 CDT","unix":1380690000},"place":{"name":"Distrito Federal,Distrito Federal","lat":-15.77972,"lon":-47.92972},"responsable":"Particular","sexo":"Masculino","type":"Física/Material"},{"Fecha":{"human":"October 2, 2013, 12:00:00 am -05:00 CDT","unix":1380690000},"place":{"name":"Distrito Federal,Distrito Federal","lat":-15.77972,"lon":-47.92972},"responsable":"Particular","sexo":"Masculino","type":"Física/Material"},{"Fecha":{"human":"October 2, 2013, 12:00:00 am -05:00 CDT","unix":1380690000},"place":{"name":"Distrito Federal,Distrito Federal","lat":-15.77972,"lon":-47.92972},"responsable":"Funcionario público","sexo":"Masculino","type":"Física/Material"},{"Fecha":{"human":"October 2, 2013, 12:00:00 am -05:00 CDT","unix":1380690000},"place":{"name":"Distrito Federal,Distrito Federal","lat":-15.77972,"lon":-47.92972},"responsable":"Se desconoce","sexo":"Femenino","type":"Física/Material"},{"Fecha":{"human":"October 2, 2013, 12:00:00 am -05:00 CDT","unix":1380690000},"place":{"name":"Distrito Federal,Distrito Federal","lat":-15.77972,"lon":-47.92972},"responsable":"Se desconoce","sexo":"Masculino","type":"Física/Material"},{"Fecha":{"human":"October 2, 2013, 12:00:00 am -05:00 CDT","unix":1380690000},"place":{"name":"Distrito Federal,Distrito Federal","lat":-15.77972,"lon":-47.92972},"responsable":"Se desconoce","sexo":"Masculino","type":"Física/Material"},{"Fecha":{"human":"October 2, 2013, 12:00:00 am -05:00 CDT","unix":1380690000},"place":{"name":"Distrito Federal,Distrito Federal","lat":-15.77972,"lon":-47.92972},"responsable":"Funcionario público","sexo":"Masculino","type":"Física/Material"},{"Fecha":{"human":"October 2, 2013, 12:00:00 am -05:00 CDT","unix":1380690000},"place":{"name":"Distrito Federal,Distrito Federal","lat":-15.77972,"lon":-47.92972},"responsable":"Funcionario público","sexo":"Masculino","type":"Física/Material"},{"Fecha":{"human":"October 2, 2013, 12:00:00 am -05:00 CDT","unix":1380690000},"place":{"name":"Distrito Federal,Distrito Federal","lat":-15.77972,"lon":-47.92972},"responsable":"Se desconoce","sexo":"Masculino","type":"Física/Material"},{"Fecha":{"human":"October 2, 2013, 12:00:00 am -05:00 CDT","unix":1380690000},"place":{"name":"Distrito Federal,Distrito Federal","lat":-15.77972,"lon":-47.92972},"responsable":"Se desconoce","sexo":"Masculino","type":"Física/Material"},{"Fecha":{"human":"October 3, 2013, 12:00:00 am -05:00 CDT","unix":1380776400},"place":{"name":"Monterrey,Nuevo León","lat":25.67507,"lon":-100.31847},"responsable":"Crimen organizado","sexo":"Masculino","type":"Amenaza"},{"Fecha":{"human":"October 5, 2013, 12:00:00 am -05:00 CDT","unix":1380949200},"place":{"name":"Mérida,Yucatán","lat":20.97537,"lon":-89.61696},"responsable":"Funcionario público","sexo":"Masculino","type":"Intimidación"},{"Fecha":{"human":"October 6, 2013, 12:00:00 am -05:00 CDT","unix":1381035600},"place":{"name":"Queretaro,Queretaro","lat":20.58806,"lon":-100.38806},"responsable":"Funcionario público","sexo":"Masculino","type":"Física/Material"},{"Fecha":{"human":"October 12, 2013, 12:00:00 am -05:00 CDT","unix":1381554000},"place":{"name":"Acayucan,Veracruz","lat":17.94979,"lon":-94.91386},"responsable":"Funcionario público","sexo":"Masculino","type":"Privación de la libertad"},{"Fecha":{"human":"October 12, 2013, 12:00:00 am -05:00 CDT","unix":1381554000},"place":{"name":"Acayucan,Veracruz","lat":17.94979,"lon":-94.91386},"responsable":"Funcionario público","sexo":"Masculino","type":"Privación de la libertad"},{"Fecha":{"human":"October 12, 2013, 12:00:00 am -05:00 CDT","unix":1381554000},"place":{"name":"Acayucan,Veracruz","lat":17.94979,"lon":-94.91386},"responsable":"Funcionario público","sexo":"Masculino","type":"Privación de la libertad"},{"Fecha":{"human":"October 12, 2013, 12:00:00 am -05:00 CDT","unix":1381554000},"place":{"name":"Acayucan,Veracruz","lat":17.94979,"lon":-94.91386},"responsable":"Funcionario público","sexo":"Masculino","type":"Privación de la libertad"},{"Fecha":{"human":"October 12, 2013, 12:00:00 am -05:00 CDT","unix":1381554000},"place":{"name":"Acayucan,Veracruz","lat":17.94979,"lon":-94.91386},"responsable":"Funcionario público","sexo":"Femenino","type":"Privación de la libertad"},{"Fecha":{"human":"October 12, 2013, 12:00:00 am -05:00 CDT","unix":1381554000},"place":{"name":"Acayucan,Veracruz","lat":17.94979,"lon":-94.91386},"responsable":"Funcionario público","sexo":"Masculino","type":"Privación de la libertad"},{"Fecha":{"human":"October 12, 2013, 12:00:00 am -05:00 CDT","unix":1381554000},"place":{"name":"Acayucan,Veracruz","lat":17.94979,"lon":-94.91386},"responsable":"Funcionario público","sexo":"Masculino","type":"Privación de la libertad"},{"Fecha":{"human":"October 13, 2013, 12:00:00 am -05:00 CDT","unix":1381640400},"place":{"name":"Chicomuselo,Chiapas","lat":15.76667,"lon":-92.26667},"responsable":"Funcionario público","sexo":"Masculino","type":"Privación de la libertad"},{"Fecha":{"human":"October 14, 2013, 12:00:00 am -05:00 CDT","unix":1381726800},"place":{"name":"Tijuana,Baja California","lat":32.5027,"lon":-117.00371},"responsable":"Funcionario público","sexo":"Masculino","type":"Intimidación"},{"Fecha":{"human":"October 15, 2013, 12:00:00 am -05:00 CDT","unix":1381813200},"place":{"name":"Salina Cruz,Oaxaca","lat":16.17535,"lon":-95.19424},"responsable":"Funcionario público","sexo":"Masculino","type":"Intimidación"},{"Fecha":{"human":"October 16, 2013, 12:00:00 am -05:00 CDT","unix":1381899600},"place":{"name":"Tuxtla Gutiérrez,Chiapas","lat":16.75973,"lon":-93.11308},"responsable":"Funcionario público","sexo":"Femenino","type":"Física/Material"},{"Fecha":{"human":"October 16, 2013, 12:00:00 am -05:00 CDT","unix":1381899600},"place":{"name":"Tuxtla Gutiérrez,Chiapas","lat":16.75973,"lon":-93.11308},"responsable":"Funcionario público","sexo":"Masculino","type":"Física/Material"},{"Fecha":{"human":"October 18, 2013, 12:00:00 am -05:00 CDT","unix":1382072400},"place":{"name":"Distrito Federal,Distrito Federal","lat":-15.77972,"lon":-47.92972},"responsable":"Partido político","sexo":"Femenino","type":"Intimidación"},{"Fecha":{"human":"October 20, 2013, 12:00:00 am -05:00 CDT","unix":1382245200},"place":{"name":"Tijuana,Baja California","lat":32.5027,"lon":-117.00371},"responsable":"Funcionario público","sexo":"Masculino","type":"Detención ilegal"},{"Fecha":{"human":"October 20, 2013, 12:00:00 am -05:00 CDT","unix":1382245200},"place":{"name":"Tijuana,Baja California","lat":32.5027,"lon":-117.00371},"responsable":"Particular","sexo":"Masculino","type":"Intimidación"},{"Fecha":{"human":"October 21, 2013, 12:00:00 am -05:00 CDT","unix":1382331600},"place":{"name":"Torreón,Coahuila","lat":25.54389,"lon":-103.41898},"responsable":"Se desconoce","sexo":"No aplica","type":"Física/Material"},{"Fecha":{"human":"October 25, 2013, 12:00:00 am -05:00 CDT","unix":1382677200},"place":{"name":"Comitán,Chiapas","lat":16.2471,"lon":-92.13515},"responsable":"Organización social","sexo":"Masculino","type":"Física/Material"},{"Fecha":{"human":"October 25, 2013, 12:00:00 am -05:00 CDT","unix":1382677200},"place":{"name":"Comitán,Chiapas","lat":16.2471,"lon":-92.13515},"responsable":"Organización social","sexo":"Femenino","type":"Física/Material"},{"Fecha":{"human":"October 25, 2013, 12:00:00 am -05:00 CDT","unix":1382677200},"place":{"name":"Comitán,Chiapas","lat":16.2471,"lon":-92.13515},"responsable":"Organización social","sexo":"Masculino","type":"Física/Material"},{"Fecha":{"human":"October 25, 2013, 12:00:00 am -05:00 CDT","unix":1382677200},"place":{"name":"Comitán,Chiapas","lat":16.2471,"lon":-92.13515},"responsable":"Organización social","sexo":"Masculino","type":"Física/Material"},{"Fecha":{"human":"October 25, 2013, 12:00:00 am -05:00 CDT","unix":1382677200},"place":{"name":"Comitán,Chiapas","lat":16.2471,"lon":-92.13515},"responsable":"Organización social","sexo":"Masculino","type":"Física/Material"},{"Fecha":{"human":"October 25, 2013, 12:00:00 am -05:00 CDT","unix":1382677200},"place":{"name":"Comitán,Chiapas","lat":16.2471,"lon":-92.13515},"responsable":"Organización social","sexo":"Femenino","type":"Física/Material"},{"Fecha":{"human":"October 25, 2013, 12:00:00 am -05:00 CDT","unix":1382677200},"place":{"name":"Comitán,Chiapas","lat":16.2471,"lon":-92.13515},"responsable":"Organización social","sexo":"Masculino","type":"Física/Material"},{"Fecha":{"human":"October 25, 2013, 12:00:00 am -05:00 CDT","unix":1382677200},"place":{"name":"Comitán,Chiapas","lat":16.2471,"lon":-92.13515},"responsable":"Organización social","sexo":"Masculino","type":"Física/Material"},{"Fecha":{"human":"October 28, 2013, 12:00:00 am -06:00 CST","unix":1382940000},"place":{"name":"Felipe Carrillo Puerto,Quintana Roo","lat":19.64519,"lon":-88.1532},"responsable":"Se desconoce","sexo":"No aplica","type":"Física/Material"},{"Fecha":{"human":"November 5, 2013, 12:00:00 am -06:00 CST","unix":1383631200},"place":{"name":"Tuxtla Gutiérrez,Chiapas","lat":16.75973,"lon":-93.11308},"responsable":"Funcionario público","sexo":"No aplica","type":"Intimidación"},{"Fecha":{"human":"November 6, 2013, 12:00:00 am -06:00 CST","unix":1383717600},"place":{"name":"Tuxtla Gutiérrez,Chiapas","lat":16.75973,"lon":-93.11308},"responsable":"Funcionario público","sexo":"No aplica","type":"Intimidación"},{"Fecha":{"human":"November 6, 2013, 12:00:00 am -06:00 CST","unix":1383717600},"place":{"name":"Tuxtla Gutiérrez,Chiapas","lat":16.75973,"lon":-93.11308},"responsable":"Organización social","sexo":"Femenino","type":"Intimidación"},{"Fecha":{"human":"November 6, 2013, 12:00:00 am -06:00 CST","unix":1383717600},"place":{"name":"Tuxtla Gutiérrez,Chiapas","lat":16.75973,"lon":-93.11308},"responsable":"Organización social","sexo":"Masculino","type":"Intimidación"},{"Fecha":{"human":"November 8, 2013, 12:00:00 am -06:00 CST","unix":1383890400},"place":{"name":"Distrito Federal,Distrito Federal","lat":-15.77972,"lon":-47.92972},"responsable":"Se desconoce","sexo":"Masculino","type":"Amenaza"},{"Fecha":{"human":"November 9, 2013, 12:00:00 am -06:00 CST","unix":1383976800},"place":{"name":"Cuernavaca,Morelos","lat":18.9261,"lon":-99.23075},"responsable":"Se desconoce","sexo":"No aplica","type":"Física/Material"},{"Fecha":{"human":"November 9, 2013, 12:00:00 am -06:00 CST","unix":1383976800},"place":{"name":"Benito Juárez,Quintana Roo","lat":21.17429,"lon":-86.84656},"responsable":"Funcionario público","sexo":"No aplica","type":"Intimidación"},{"Fecha":{"human":"November 13, 2013, 12:00:00 am -06:00 CST","unix":1384322400},"place":{"name":"Córdoba,Veracruz","lat":18.8842,"lon":-96.92559},"responsable":"Particular","sexo":"Femenino","type":"Amenaza"},{"Fecha":{"human":"November 13, 2013, 12:00:00 am -06:00 CST","unix":1384322400},"place":{"name":"Álamo Temapache,Veracruz","lat":21.06611,"lon":-97.64207},"responsable":"Organización social","sexo":"No aplica","type":"Física/Material"},{"Fecha":{"human":"November 19, 2013, 12:00:00 am -06:00 CST","unix":1384840800},"place":{"name":"Tancitaro,Michoacán","lat":19.33843,"lon":-102.36264},"responsable":"Organización social","sexo":"Masculino","type":"Física/Material"},{"Fecha":{"human":"November 19, 2013, 12:00:00 am -06:00 CST","unix":1384840800},"place":{"name":"Tancitaro,Michoacán","lat":19.33843,"lon":-102.36264},"responsable":"Organización social","sexo":"Masculino","type":"Física/Material"},{"Fecha":{"human":"November 19, 2013, 12:00:00 am -06:00 CST","unix":1384840800},"place":{"name":"Tancitaro,Michoacán","lat":19.33843,"lon":-102.36264},"responsable":"Organización social","sexo":"Masculino","type":"Física/Material"},{"Fecha":{"human":"November 19, 2013, 12:00:00 am -06:00 CST","unix":1384840800},"place":{"name":"Tancitaro,Michoacán","lat":19.33843,"lon":-102.36264},"responsable":"Organización social","sexo":"Masculino","type":"Privación de la libertad"},{"Fecha":{"human":"November 19, 2013, 12:00:00 am -06:00 CST","unix":1384840800},"place":{"name":"Tancitaro,Michoacán","lat":19.33843,"lon":-102.36264},"responsable":"Organización social","sexo":"Masculino","type":"Privación de la libertad"},{"Fecha":{"human":"November 19, 2013, 12:00:00 am -06:00 CST","unix":1384840800},"place":{"name":"Tancitaro,Michoacán","lat":19.33843,"lon":-102.36264},"responsable":"Organización social","sexo":"Masculino","type":"Privación de la libertad"},{"Fecha":{"human":"December 1, 2013, 12:00:00 am -06:00 CST","unix":1385877600},"place":{"name":"Distrito Federal,Distrito Federal","lat":-15.77972,"lon":-47.92972},"responsable":"Funcionario público","sexo":"Femenino","type":"Detención ilegal"},{"Fecha":{"human":"December 1, 2013, 12:00:00 am -06:00 CST","unix":1385877600},"place":{"name":"Distrito Federal,Distrito Federal","lat":-15.77972,"lon":-47.92972},"responsable":"Funcionario público","sexo":"Femenino","type":"Física/Material"},{"Fecha":{"human":"December 1, 2013, 12:00:00 am -06:00 CST","unix":1385877600},"place":{"name":"Cuauhtémoc,Distrito Federal","lat":19.42847,"lon":-99.12766},"responsable":"Funcionario público","sexo":"Femenino","type":"Física/Material"},{"Fecha":{"human":"December 1, 2013, 12:00:00 am -06:00 CST","unix":1385877600},"place":{"name":"Distrito Federal,Distrito Federal","lat":-15.77972,"lon":-47.92972},"responsable":"Funcionario público","sexo":"Masculino","type":"Física/Material"},{"Fecha":{"human":"December 1, 2013, 12:00:00 am -06:00 CST","unix":1385877600},"place":{"name":"Distrito Federal,Distrito Federal","lat":-15.77972,"lon":-47.92972},"responsable":"se desconoce","sexo":"No aplica","type":"Física/Material"},{"Fecha":{"human":"December 11, 2013, 12:00:00 am -06:00 CST","unix":1386741600},"place":{"name":"Tuxtepec,Oaxaca","lat":18.0883,"lon":-96.12535},"responsable":"Funcionario público","sexo":"Masculino","type":"Amenaza"},{"Fecha":{"human":"December 14, 2013, 12:00:00 am -06:00 CST","unix":1387000800},"place":{"name":"Distrito Federal,Distrito Federal","lat":-15.77972,"lon":-47.92972},"responsable":"Funcionario público","sexo":"Femenino","type":"Física/Material"},{"Fecha":{"human":"December 14, 2013, 12:00:00 am -06:00 CST","unix":1387000800},"place":{"name":"Distrito Federal,Distrito Federal","lat":-15.77972,"lon":-47.92972},"responsable":"Funcionario público","sexo":"Femenino","type":"Física/Material"},{"Fecha":{"human":"December 14, 2013, 12:00:00 am -06:00 CST","unix":1387000800},"place":{"name":"Distrito Federal,Distrito Federal","lat":-15.77972,"lon":-47.92972},"responsable":"Funcionario público","sexo":"Masculino","type":"Física/Material"},{"Fecha":{"human":"December 14, 2013, 12:00:00 am -06:00 CST","unix":1387000800},"place":{"name":"Fresnillo,Zacatecas","lat":23.18126,"lon":-102.87136},"responsable":"Particular","sexo":"Masculino","type":"Física/Material"},{"Fecha":{"human":"December 14, 2013, 12:00:00 am -06:00 CST","unix":1387000800},"place":{"name":"Las Choapas,Veracruz","lat":17.67853,"lon":-94.00406},"responsable":"Particular","sexo":"Masculino","type":"Privación de la libertad"},{"Fecha":{"human":"December 15, 2013, 12:00:00 am -06:00 CST","unix":1387087200},"place":{"name":"San Luis Potosí,San Luis Potosí","lat":22.14982,"lon":-100.97916},"responsable":"Funcionario público","sexo":"Masculino","type":"Física/Material"},{"Fecha":{"human":"December 16, 2013, 12:00:00 am -06:00 CST","unix":1387173600},"place":{"name":"Acapulco,Guerrero","lat":16.84942,"lon":-99.90891},"responsable":"Funcionario público","sexo":"Masculino","type":"Amenaza"},{"Fecha":{"human":"December 16, 2013, 12:00:00 am -06:00 CST","unix":1387173600},"place":{"name":"Tecamachalco,Puebla","lat":18.86102,"lon":-97.74643},"responsable":"Particular","sexo":"Masculino","type":"Amenaza"},{"Fecha":{"human":"December 17, 2013, 12:00:00 am -06:00 CST","unix":1387260000},"place":{"name":"Oaxaca,Oaxaca","lat":17,"lon":-96.5},"responsable":"Funcionario público","sexo":"Masculino","type":"Física/Material"},{"Fecha":{"human":"December 17, 2013, 12:00:00 am -06:00 CST","unix":1387260000},"place":{"name":"Benito Juárez,Quintana Roo","lat":21.17429,"lon":-86.84656},"responsable":"Funcionario público","sexo":"No aplica","type":"Intimidación"},{"Fecha":{"human":"December 21, 2013, 12:00:00 am -06:00 CST","unix":1387605600},"place":{"name":"Naucalpan,Estado de México","lat":19.47851,"lon":-99.23963},"responsable":"Se desconoce","sexo":"Femenino","type":"Física/Material"},{"Fecha":{"human":"January 1, 2014, 12:00:00 am -06:00 CST","unix":1388556000},"place":{"name":"San Miguel Soyaltepec,Oaxaca","lat":18.25404,"lon":-96.396},"responsable":"Funcionario Público","sexo":"Femenino","type":"Física/Material"},{"Fecha":{"human":"January 1, 2014, 12:00:00 am -06:00 CST","unix":1388556000},"place":{"name":"San Miguel Soyaltepec,Oaxaca","lat":18.25404,"lon":-96.396},"responsable":"Funcionario Público","sexo":"Femenino","type":"Física/Material"},{"Fecha":{"human":"January 1, 2014, 12:00:00 am -06:00 CST","unix":1388556000},"place":{"name":"San Miguel Soyaltepec,Oaxaca","lat":18.25404,"lon":-96.396},"responsable":"Fuerza Partidísta","sexo":"Masculino","type":"Física/Material"},{"Fecha":{"human":"January 1, 2014, 12:00:00 am -06:00 CST","unix":1388556000},"place":{"name":"San Miguel Soyaltepec,Oaxaca","lat":18.25404,"lon":-96.396},"responsable":"Fuerza Partidísta","sexo":"Masculino","type":"Física/Material"},{"Fecha":{"human":"January 1, 2014, 12:00:00 am -06:00 CST","unix":1388556000},"place":{"name":"Seyé,Yucatán","lat":20.85171,"lon":-89.37289},"responsable":"Fuerza Partidísta","sexo":"Masculino","type":"Física/Material"},{"Fecha":{"human":"January 4, 2014, 12:00:00 am -06:00 CST","unix":1388815200},"place":{"name":"Veracruz,Veracruz","lat":19.33333,"lon":-96.66667},"responsable":"Fuerza Partidísta","sexo":"Masculino","type":"Amenaza"},{"Fecha":{"human":"January 5, 2014, 12:00:00 am -06:00 CST","unix":1388901600},"place":{"name":"Cuauhtémoc,Distrito Federal","lat":19.42847,"lon":-99.12766},"responsable":"Funcionario Público","sexo":"Masculino","type":"Física/Material"},{"Fecha":{"human":"January 5, 2014, 12:00:00 am -06:00 CST","unix":1388901600},"place":{"name":"Cuauhtémoc,Distrito Federal","lat":19.42847,"lon":-99.12766},"responsable":"Funcionario Público","sexo":"Femenino","type":"Física/Material"},{"Fecha":{"human":"January 5, 2014, 12:00:00 am -06:00 CST","unix":1388901600},"place":{"name":"Cuauhtémoc,Distrito Federal","lat":19.42847,"lon":-99.12766},"responsable":"Particular","sexo":"Masculino","type":"Física/Material"},{"Fecha":{"human":"January 8, 2014, 12:00:00 am -06:00 CST","unix":1389160800},"place":{"name":"Chihuahua,Chihuahua","lat":28.63528,"lon":-106.08889},"responsable":"Particular","sexo":"Masculino","type":"Amenaza"},{"Fecha":{"human":"January 9, 2014, 12:00:00 am -06:00 CST","unix":1389247200},"place":{"name":"Coacalco,Estado de México","lat":19.62923,"lon":-99.10689},"responsable":"Particular","sexo":"Masculino","type":"Física/Material"},{"Fecha":{"human":"January 9, 2014, 12:00:00 am -06:00 CST","unix":1389247200},"place":{"name":"Coacalco,Estado de México","lat":19.62923,"lon":-99.10689},"responsable":"Particular","sexo":"Masculino","type":"Física/Material"},{"Fecha":{"human":"January 10, 2014, 12:00:00 am -06:00 CST","unix":1389333600},"place":{"name":"Tlapa de Comonfort,Guerrero","lat":17.54528,"lon":-98.57599},"responsable":"Particular","sexo":"Masculino","type":"Intimidación"},{"Fecha":{"human":"January 12, 2014, 12:00:00 am -06:00 CST","unix":1389506400},"place":{"name":"San Luis Potosí,San Luis Potosí","lat":22.14982,"lon":-100.97916},"responsable":"Particular","sexo":"Femenino","type":"Detención arbitraria"},{"Fecha":{"human":"January 17, 2014, 12:00:00 am -06:00 CST","unix":1389938400},"place":{"name":"Salina Cruz,Oaxaca","lat":16.17535,"lon":-95.19424},"responsable":"Particular","sexo":"Masculino","type":"Detención arbitraria"},{"Fecha":{"human":"January 22, 2014, 12:00:00 am -06:00 CST","unix":1390370400},"place":{"name":"Oaxaca,Oaxaca","lat":17,"lon":-96.5},"responsable":"Funcionario Público","sexo":"Masculino","type":"Hostigamiento"},{"Fecha":{"human":"January 23, 2014, 12:00:00 am -06:00 CST","unix":1390456800},"place":{"name":"Álamo Temapache,Veracruz","lat":21.06611,"lon":-97.64207},"responsable":"Organización sindical","sexo":"Femenino","type":"Física/Material"},{"Fecha":{"human":"January 24, 2014, 12:00:00 am -06:00 CST","unix":1390543200},"place":{"name":"Zacatlán,Puebla","lat":19.9355,"lon":-97.96125},"responsable":"Organización sindical","sexo":"Masculino","type":"Amenaza"},{"Fecha":{"human":"January 24, 2014, 12:00:00 am -06:00 CST","unix":1390543200},"place":{"name":"Tuxtla Gutiérrez,Chiapas","lat":16.75973,"lon":-93.11308},"responsable":"Organización sindical","sexo":"Femenino","type":"Hostigamiento"},{"Fecha":{"human":"January 24, 2014, 12:00:00 am -06:00 CST","unix":1390543200},"place":{"name":"Zacatlán,Puebla","lat":19.9355,"lon":-97.96125},"responsable":"Organización sindical","sexo":"Femenino","type":"Hostigamiento"},{"Fecha":{"human":"January 25, 2014, 12:00:00 am -06:00 CST","unix":1390629600},"place":{"name":"Mérida,Yucatán","lat":20.97537,"lon":-89.61696},"responsable":"Organización sindical","sexo":"Femenino","type":"Detención arbitraria"},{"Fecha":{"human":"January 27, 2014, 12:00:00 am -06:00 CST","unix":1390802400},"place":{"name":"Cuauhtémoc,Distrito Federal","lat":19.42847,"lon":-99.12766},"responsable":"Organización sindical","sexo":"Femenino","type":"Acción legal/calumnia/difamación"},{"Fecha":{"human":"January 28, 2014, 12:00:00 am -06:00 CST","unix":1390888800},"place":{"name":"Comitán,Chiapas","lat":16.2471,"lon":-92.13515},"responsable":"Organización sindical","sexo":"Masculino","type":"Amenaza"},{"Fecha":{"human":"January 28, 2014, 12:00:00 am -06:00 CST","unix":1390888800},"place":{"name":"Cancún,Quintana Roo","lat":21.17429,"lon":-86.84656},"responsable":"Organización sindical","sexo":"Masculino","type":"Física/Material"},{"Fecha":{"human":"January 28, 2014, 12:00:00 am -06:00 CST","unix":1390888800},"place":{"name":"Cancún,Quintana Roo","lat":21.17429,"lon":-86.84656},"responsable":"Organización sindical","sexo":"Masculino","type":"Intimidación"},{"Fecha":{"human":"January 31, 2014, 12:00:00 am -06:00 CST","unix":1391148000},"place":{"name":"Chilpancingo,Guerrero","lat":17.5506,"lon":-99.50578},"responsable":"Organización sindical","sexo":"Masculino","type":"Amenaza"},{"Fecha":{"human":"February 10, 2014, 12:00:00 am -06:00 CST","unix":1392012000},"place":{"name":"Coatzacoalcos,Veracruz","lat":18.14905,"lon":-94.4447},"responsable":"Funcionario Público","sexo":"Masculino","type":"Intimidación"},{"Fecha":{"human":"February 10, 2014, 12:00:00 am -06:00 CST","unix":1392012000},"place":{"name":"Coatzacoalcos,Veracruz","lat":18.14905,"lon":-94.4447},"responsable":"Particular","sexo":"Masculino","type":"Intimidación"},{"Fecha":{"human":"February 10, 2014, 12:00:00 am -06:00 CST","unix":1392012000},"place":{"name":"Coatzacoalcos,Veracruz","lat":18.14905,"lon":-94.4447},"responsable":"Funcionario Público","sexo":"Masculino","type":"Intimidación"},{"Fecha":{"human":"February 11, 2014, 12:00:00 am -06:00 CST","unix":1392098400},"place":{"name":"Coatzacoalcos,Veracruz","lat":18.14905,"lon":-94.4447},"responsable":"Particular","sexo":"Femenino","type":"Asesinato"},{"Fecha":{"human":"February 13, 2014, 12:00:00 am -06:00 CST","unix":1392271200},"place":{"name":"Cancún,Quintana Roo","lat":21.17429,"lon":-86.84656},"responsable":"Particular","sexo":"Masculino","type":"Intimidación"},{"Fecha":{"human":"February 15, 2014, 12:00:00 am -06:00 CST","unix":1392444000},"place":{"name":"Huaquechula,Puebla","lat":18.78047,"lon":-98.50141},"responsable":"Particular","sexo":"Masculino","type":"Física/Material"},{"Fecha":{"human":"February 18, 2014, 12:00:00 am -06:00 CST","unix":1392703200},"place":{"name":"Cuauhtémoc,Distrito Federal","lat":19.42847,"lon":-99.12766},"responsable":"Particular","sexo":"Masculino","type":"Amenaza"},{"Fecha":{"human":"February 18, 2014, 12:00:00 am -06:00 CST","unix":1392703200},"place":{"name":"Cuauhtémoc,Distrito Federal","lat":19.42847,"lon":-99.12766},"responsable":"Particular","sexo":"Masculino","type":"Detención arbitraria"},{"Fecha":{"human":"February 20, 2014, 12:00:00 am -06:00 CST","unix":1392876000},"place":{"name":"Villahermosa,Tabasco","lat":17.98689,"lon":-92.93028},"responsable":"Particular","sexo":"Masculino","type":"Ataque cibernético"},{"Fecha":{"human":"February 21, 2014, 12:00:00 am -06:00 CST","unix":1392962400},"place":{"name":"Tijuana,Baja California","lat":32.5027,"lon":-117.00371},"responsable":"Particular","sexo":"Masculino","type":"Hostigamiento"},{"Fecha":{"human":"February 22, 2014, 12:00:00 am -06:00 CST","unix":1393048800},"place":{"name":"Orizaba,Veracruz","lat":19.0164,"lon":-97.2667},"responsable":"Particular","sexo":"Masculino","type":"Detención arbitraria"},{"Fecha":{"human":"February 23, 2014, 12:00:00 am -06:00 CST","unix":1393135200},"place":{"name":"Mazatlán,Sinaloa","lat":23.2329,"lon":-106.4062},"responsable":"Particular","sexo":"Masculino","type":"Amenaza"},{"Fecha":{"human":"February 24, 2014, 12:00:00 am -06:00 CST","unix":1393221600},"place":{"name":"Huimanguillo,Tabasco","lat":17.81531,"lon":-93.66702},"responsable":"Funcionario Público","sexo":"Masculino","type":"Amenaza"},{"Fecha":{"human":"February 24, 2014, 12:00:00 am -06:00 CST","unix":1393221600},"place":{"name":"Paso del Macho,Veracruz","lat":18.95015,"lon":-96.68174},"responsable":"Funcionario Público","sexo":"Masculino","type":"Hostigamiento"},{"Fecha":{"human":"February 24, 2014, 12:00:00 am -06:00 CST","unix":1393221600},"place":{"name":"Acapulco,Guerrero","lat":16.84942,"lon":-99.90891},"responsable":"Desconoce","sexo":"Masculino","type":"Física/Material"},{"Fecha":{"human":"February 24, 2014, 12:00:00 am -06:00 CST","unix":1393221600},"place":{"name":"Acapulco,Guerrero","lat":16.84942,"lon":-99.90891},"responsable":"Particular","sexo":"Femenino","type":"Física/Material"},{"Fecha":{"human":"February 25, 2014, 12:00:00 am -06:00 CST","unix":1393308000},"place":{"name":"Mazatlán,Sinaloa","lat":23.2329,"lon":-106.4062},"responsable":"Funcionario Público","sexo":"Masculino","type":"Intimidación"},{"Fecha":{"human":"February 28, 2014, 12:00:00 am -06:00 CST","unix":1393567200},"place":{"name":"Chilpancingo,Guerrero","lat":17.5506,"lon":-99.50578},"responsable":"Particular","sexo":"Femenino","type":"Física/Material"},{"Fecha":{"human":"March 2, 2014, 12:00:00 am -06:00 CST","unix":1393740000},"place":{"name":"Culiacán,Sinaloa","lat":24.79032,"lon":-107.38782},"responsable":"Funcionario Público","sexo":"Masculino","type":"Física/Material"},{"Fecha":{"human":"March 2, 2014, 12:00:00 am -06:00 CST","unix":1393740000},"place":{"name":"Guamúchil,Sinaloa","lat":25.4587,"lon":-108.07732},"responsable":"Funcionario Público","sexo":"Masculino","type":"Física/Material"},{"Fecha":{"human":"March 2, 2014, 12:00:00 am -06:00 CST","unix":1393740000},"place":{"name":"Culiacán,Sinaloa","lat":24.79032,"lon":-107.38782},"responsable":"Funcionario Público","sexo":"Masculino","type":"Física/Material"},{"Fecha":{"human":"March 4, 2014, 12:00:00 am -06:00 CST","unix":1393912800},"place":{"name":"Saltillo,Coahuila","lat":25.42321,"lon":-101.0053},"responsable":"Particular","sexo":"Femenino","type":"Amenaza"},{"Fecha":{"human":"March 4, 2014, 12:00:00 am -06:00 CST","unix":1393912800},"place":{"name":"Saltillo,Coahuila","lat":25.42321,"lon":-101.0053},"responsable":"Funcionario Público","sexo":"Masculino","type":"Amenaza"},{"Fecha":{"human":"March 4, 2014, 12:00:00 am -06:00 CST","unix":1393912800},"place":{"name":"Tapachula,Chiapas","lat":14.90385,"lon":-92.25749},"responsable":"Funcionario Público","sexo":"Masculino","type":"Amenaza"},{"Fecha":{"human":"March 7, 2014, 12:00:00 am -06:00 CST","unix":1394172000},"place":{"name":"Acapulco,Guerrero","lat":16.84942,"lon":-99.90891},"responsable":"Particular","sexo":"Masculino","type":"Amenaza"},{"Fecha":{"human":"March 7, 2014, 12:00:00 am -06:00 CST","unix":1394172000},"place":{"name":"La Paz,Baja California Sur","lat":24.14437,"lon":-110.3005},"responsable":"Particular","sexo":"Masculino","type":"Amenaza"},{"Fecha":{"human":"March 8, 2014, 12:00:00 am -06:00 CST","unix":1394258400},"place":{"name":"Mexicali,Baja California","lat":32.62781,"lon":-115.45446},"responsable":"Particular","sexo":"Masculino","type":"Física/Material"},{"Fecha":{"human":"March 10, 2014, 12:00:00 am -06:00 CST","unix":1394431200},"place":{"name":"Salina Cruz,Oaxaca","lat":16.17535,"lon":-95.19424},"responsable":"Particular","sexo":"Masculino","type":"Amenaza"},{"Fecha":{"human":"March 12, 2014, 12:00:00 am -06:00 CST","unix":1394604000},"place":{"name":"Cuauhtémoc,Distrito Federal","lat":19.42847,"lon":-99.12766},"responsable":"Desconoce","sexo":"Masculino","type":"Amenaza"},{"Fecha":{"human":"March 12, 2014, 12:00:00 am -06:00 CST","unix":1394604000},"place":{"name":"Tepoztlán,Morelos","lat":18.96424,"lon":-99.09972},"responsable":"Desconoce","sexo":"Masculino","type":"Amenaza"},{"Fecha":{"human":"March 12, 2014, 12:00:00 am -06:00 CST","unix":1394604000},"place":{"name":"Tepoztlán,Morelos","lat":18.96424,"lon":-99.09972},"responsable":"Desconoce","sexo":"Masculino","type":"Amenaza"},{"Fecha":{"human":"March 14, 2014, 12:00:00 am -06:00 CST","unix":1394776800},"place":{"name":"Playas de Rosarito,Baja California","lat":32.36044,"lon":-117.04645},"responsable":"Funcionario Público","sexo":"Masculino","type":"Intimidación"},{"Fecha":{"human":"March 16, 2014, 12:00:00 am -06:00 CST","unix":1394949600},"place":{"name":"Cuauhtémoc,Distrito Federal","lat":19.42847,"lon":-99.12766},"responsable":"Funcionario Público","sexo":"Femenino","type":"Física/Material"},{"Fecha":{"human":"March 17, 2014, 12:00:00 am -06:00 CST","unix":1395036000},"place":{"name":"Veracruz,Veracruz","lat":19.33333,"lon":-96.66667},"responsable":"Funcionario Público","sexo":"Femenino","type":"Física/Material"},{"Fecha":{"human":"March 20, 2014, 12:00:00 am -06:00 CST","unix":1395295200},"place":{"name":"Cuernavaca,Morelos","lat":18.9261,"lon":-99.23075},"responsable":"Desconoce","sexo":"Femenino","type":"Física/Material"},{"Fecha":{"human":"March 20, 2014, 12:00:00 am -06:00 CST","unix":1395295200},"place":{"name":"Cuernavaca,Morelos","lat":18.9261,"lon":-99.23075},"responsable":"Desconoce","sexo":"Masculino","type":"Física/Material"},{"Fecha":{"human":"March 20, 2014, 12:00:00 am -06:00 CST","unix":1395295200},"place":{"name":"Cuernavaca,Morelos","lat":18.9261,"lon":-99.23075},"responsable":"Desconoce","sexo":"Masculino","type":"Física/Material"},{"Fecha":{"human":"March 20, 2014, 12:00:00 am -06:00 CST","unix":1395295200},"place":{"name":"Cuernavaca,Morelos","lat":18.9261,"lon":-99.23075},"responsable":"Funcionario Público","sexo":"Masculino","type":"Física/Material"},{"Fecha":{"human":"March 20, 2014, 12:00:00 am -06:00 CST","unix":1395295200},"place":{"name":"Benito Juárez,Distrito Federal","lat":19.3984,"lon":-99.15766},"responsable":"Funcionario Público","sexo":"Masculino","type":"Detención arbitraria"},{"Fecha":{"human":"March 27, 2014, 12:00:00 am -06:00 CST","unix":1395900000},"place":{"name":"Chinameca,Veracruz","lat":18.06113,"lon":-94.70874},"responsable":"Funcionario Público","sexo":"Femenino","type":"Amenaza"},{"Fecha":{"human":"March 27, 2014, 12:00:00 am -06:00 CST","unix":1395900000},"place":{"name":"Chinameca,Veracruz","lat":18.06113,"lon":-94.70874},"responsable":"Delincuencia organizada","sexo":"Masculino","type":"Amenaza"},{"Fecha":{"human":"March 27, 2014, 12:00:00 am -06:00 CST","unix":1395900000},"place":{"name":"Chilpancingo,Guerrero","lat":17.5506,"lon":-99.50578},"responsable":"Particular","sexo":"Masculino","type":"Hostigamiento"},{"Fecha":{"human":"March 27, 2014, 12:00:00 am -06:00 CST","unix":1395900000},"place":{"name":"Chilpancingo,Guerrero","lat":17.5506,"lon":-99.50578},"responsable":"Desconoce","sexo":"Masculino","type":"Hostigamiento"},{"Fecha":{"human":"March 27, 2014, 12:00:00 am -06:00 CST","unix":1395900000},"place":{"name":"Chilpancingo,Guerrero","lat":17.5506,"lon":-99.50578},"responsable":"Funcionario Público","sexo":"Masculino","type":"Hostigamiento"},{"Fecha":{"human":"March 27, 2014, 12:00:00 am -06:00 CST","unix":1395900000},"place":{"name":"Iztacalco,Distrito Federal","lat":19.39528,"lon":-99.09778},"responsable":"Desconoce","sexo":"No aplica","type":"Intimidación"},{"Fecha":{"human":"April 1, 2014, 12:00:00 am -06:00 CST","unix":1396332000},"place":{"name":"Benito Juárez,Distrito Federal","lat":19.3984,"lon":-99.15766},"responsable":"Desconoce","sexo":"Femenino","type":"Intimidación"},{"Fecha":{"human":"April 1, 2014, 12:00:00 am -06:00 CST","unix":1396332000},"place":{"name":"Tecate,Baja California","lat":32.56717,"lon":-116.62509},"responsable":"Funcionario Público","sexo":"Masculino","type":"Acción legal/calumnia/difamación"},{"Fecha":{"human":"April 1, 2014, 12:00:00 am -06:00 CST","unix":1396332000},"place":{"name":"Tecate,Baja California","lat":32.56717,"lon":-116.62509},"responsable":"Particular","sexo":"Femenino","type":"Acción legal/calumnia/difamación"},{"Fecha":{"human":"April 1, 2014, 12:00:00 am -06:00 CST","unix":1396332000},"place":{"name":"Cuauhtémoc,Distrito Federal","lat":19.42847,"lon":-99.12766},"responsable":"Funcionario Público","sexo":"Masculino","type":"Física/Material"},{"Fecha":{"human":"April 1, 2014, 12:00:00 am -06:00 CST","unix":1396332000},"place":{"name":"Cuauhtémoc,Distrito Federal","lat":19.42847,"lon":-99.12766},"responsable":"Organización sindical","sexo":"Femenino","type":"Física/Material"},{"Fecha":{"human":"April 2, 2014, 12:00:00 am -06:00 CST","unix":1396418400},"place":{"name":"Tuxpan,Michoacán","lat":19.56733,"lon":-100.48516},"responsable":"Funcionario Público","sexo":"Femenino","type":"Detención arbitraria"},{"Fecha":{"human":"April 3, 2014, 12:00:00 am -06:00 CST","unix":1396504800},"place":{"name":"Xalapa,Veracruz","lat":19.53124,"lon":-96.91589},"responsable":"Particular","sexo":"Femenino","type":"Física/Material"},{"Fecha":{"human":"April 3, 2014, 12:00:00 am -06:00 CST","unix":1396504800},"place":{"name":"Culiacán,Sinaloa","lat":24.79032,"lon":-107.38782},"responsable":"Funcionario Público","sexo":"Femenino","type":"Física/Material"},{"Fecha":{"human":"April 3, 2014, 12:00:00 am -06:00 CST","unix":1396504800},"place":{"name":"Cuauhtémoc,Distrito Federal","lat":19.42847,"lon":-99.12766},"responsable":"Funcionario Público","sexo":"Femenino","type":"Hostigamiento"},{"Fecha":{"human":"April 4, 2014, 12:00:00 am -06:00 CST","unix":1396591200},"place":{"name":"Nuevo Laredo,Tamaulipas","lat":27.47629,"lon":-99.51639},"responsable":"Desconoce","sexo":"Femenino","type":"Física/Material"},{"Fecha":{"human":"April 4, 2014, 12:00:00 am -06:00 CST","unix":1396591200},"place":{"name":"Nuevo Laredo,Tamaulipas","lat":27.47629,"lon":-99.51639},"responsable":"Funcionario Público","sexo":"Masculino","type":"Física/Material"},{"Fecha":{"human":"April 4, 2014, 12:00:00 am -06:00 CST","unix":1396591200},"place":{"name":"Nuevo Laredo,Tamaulipas","lat":27.47629,"lon":-99.51639},"responsable":"Funcionario Público","sexo":"Femenino","type":"Física/Material"},{"Fecha":{"human":"April 6, 2014, 12:00:00 am -06:00 CST","unix":1396764000},"place":{"name":"Córdoba,Veracruz","lat":18.8842,"lon":-96.92559},"responsable":"Desconoce","sexo":"Masculino","type":"Amenaza"},{"Fecha":{"human":"April 9, 2014, 12:00:00 am -05:00 CDT","unix":1397019600},"place":{"name":"Hermosillo,Sonora","lat":29.1026,"lon":-110.97732},"responsable":"Funcionario Público","sexo":"No aplica","type":"Detención arbitraria"},{"Fecha":{"human":"April 9, 2014, 12:00:00 am -05:00 CDT","unix":1397019600},"place":{"name":"Río Blanco,Veracruz","lat":18.83867,"lon":-97.15717},"responsable":"Funcionario Público","sexo":"Femenino","type":"Detención arbitraria"},{"Fecha":{"human":"April 9, 2014, 12:00:00 am -05:00 CDT","unix":1397019600},"place":{"name":"Río Blanco,Veracruz","lat":18.83867,"lon":-97.15717},"responsable":"Funcionario Público","sexo":"Masculino","type":"Detención arbitraria"},{"Fecha":{"human":"April 9, 2014, 12:00:00 am -05:00 CDT","unix":1397019600},"place":{"name":"Río Blanco,Veracruz","lat":18.83867,"lon":-97.15717},"responsable":"Desconoce","sexo":"Masculino","type":"Detención arbitraria"},